,link,property_id,locality_name,postal_code,price,type_of_property,subtype_of_property,number_of_rooms,living_area,furnished,open_fire,terrace_surface,garden,facades,swimming_pool,land_area,equipped_kitchen,state_of_building,type_of_sale,street,lon,lat
0,https://www.immoweb.be/en/classified/house/for-sale/tessenderlo/3980/10034341,10034341,Tessenderlo,3980,320000,HOUSE,HOUSE,5,387.0,0.0,0,44.0,464.0,2.0,0,674.0,UNKNOWN,TO_RENOVATE,FOR_SALE,Neerstraat,5.0884097,51.0692464
1,https://www.immoweb.be/en/classified/house/for-sale/tessenderlo/3980/20298262,20298262,Tessenderlo,3980,545372,HOUSE,HOUSE,3,232.0,0.0,0,30.0,1.0,3.0,1,1001.0,HYPER_EQUIPPED,AS_NEW,FOR_SALE,Schans,5.080165399999999,51.071313
2,https://www.immoweb.be/en/classified/house/for-sale/heer/5543/20167635,20167635,Heer,5543,119990,HOUSE,HOUSE,2,107.0,0.0,0,14.0,125.0,3.0,0,337.0,INSTALLED,TO_BE_DONE_UP,FOR_SALE,Rue des Juifs,4.8313095,50.1628045
3,https://www.immoweb.be/en/classified/house/for-sale/gingelom/3891/20109704,20109704,GINGELOM,3891,335000,HOUSE,HOUSE,3,354.0,0.0,0,41.0,0.0,4.0,0,1200.0,UNKNOWN,TO_RENOVATE,FOR_SALE,Hemelrijkstraat,5.1799899,50.7381298
4,https://www.immoweb.be/en/classified/house/for-sale/tessenderlo/3980/20363563,20363563,Tessenderlo,3980,325000,HOUSE,HOUSE,3,146.0,0.0,0,20.0,0.0,4.0,1,631.0,UNKNOWN,UNKNOWN,FOR_SALE,Begijnenwinning,5.1043401,51.07108849999999
5,https://www.immoweb.be/en/classified/house/for-sale/buvingen/3891/10129606,10129606,BUVINGEN,3891,255000,HOUSE,HOUSE,4,292.0,0.0,0,32.0,0.0,2.0,0,652.0,SEMI_EQUIPPED,TO_BE_DONE_UP,FOR_SALE,Truilingenstraat,5.176777899999999,50.7537698
6,https://www.immoweb.be/en/classified/house/for-sale/tessenderlo/3980/20358807,20358807,TESSENDERLO,3980,350000,HOUSE,HOUSE,4,205.0,0.0,0,25.0,0.0,4.0,0,1915.0,UNKNOWN,TO_RENOVATE,FOR_SALE,Sparrenweg,5.0405035,51.0656168
7,https://www.immoweb.be/en/classified/apartment/for-sale/tessenderlo/3980/20264532,20264532,Tessenderlo,3980,289000,APARTMENT,APARTMENT,2,115.0,0.0,0,23.0,72.0,2.0,1,0.0,USA_INSTALLED,AS_NEW,FOR_SALE,Spekestraat,5.131073,51.068808
8,https://www.immoweb.be/en/classified/house/for-sale/tessenderlo/3980/20298249,20298249,Tessenderlo,3980,596500,HOUSE,HOUSE,3,322.0,0.0,0,40.0,1.0,3.0,1,1099.0,HYPER_EQUIPPED,AS_NEW,FOR_SALE,Baalmolenstraat,5.0846241,51.07645520000001
9,https://www.immoweb.be/en/classified/villa/for-sale/tessenderlo/3980/20358809,20358809,TESSENDERLO,3980,545000,HOUSE,VILLA,4,328.0,0.0,0,40.0,0.0,4.0,0,835.0,INSTALLED,GOOD,FOR_SALE,Schoterweg,5.0528925,51.0686641
10,https://www.immoweb.be/en/classified/ground-floor/for-sale/kinrooi/3640/20343721,20343721,KINROOI,3640,284000,APARTMENT,GROUND_FLOOR,2,116.0,0.0,0,14.0,15.0,0.0,0,0.0,INSTALLED,UNKNOWN,FOR_SALE,Neeroetersesteenweg,5.7412892,51.14228139999999
11,https://www.immoweb.be/en/classified/house/for-sale/gingelom/3891/20355753,20355753,Gingelom,3891,349000,HOUSE,HOUSE,3,263.0,0.0,0,31.0,0.0,4.0,0,1728.0,UNKNOWN,TO_BE_DONE_UP,FOR_SALE,Hemelrijkstraat,5.1795832,50.73867329999999
12,https://www.immoweb.be/en/classified/house/for-sale/heer/5543/10639346,10639346,Heer,5543,120000,HOUSE,HOUSE,2,100.0,0.0,0,13.0,0.0,2.0,0,0.0,UNKNOWN,UNKNOWN,FOR_SALE,Rue des Juifs,4.8309028,50.1632211
13,https://www.immoweb.be/en/classified/house/for-sale/beringen/3581/20392275,20392275,Beringen,3581,467000,HOUSE,HOUSE,2,217.0,0.0,0,28.0,0.0,4.0,0,1090.0,UNKNOWN,GOOD,FOR_SALE,Molenaarstraat,5.2294002,51.0892623
14,https://www.immoweb.be/en/classified/house/for-sale/tessenderlo/3980/20294913,20294913,Tessenderlo,3980,375000,HOUSE,HOUSE,3,194.0,0.0,0,88.0,0.0,4.0,1,889.0,HYPER_EQUIPPED,AS_NEW,FOR_SALE,Schoterweg,5.039495,51.06726889999999
15,https://www.immoweb.be/en/classified/house/for-sale/la-bruyere/5080/20143404,20143404,La Bruyère,5080,349000,HOUSE,HOUSE,3,198.0,0.0,0,25.0,708.0,0.0,0,708.0,UNKNOWN,GOOD,FOR_SALE,Rue du Chainia,4.8029085,50.5508992
16,https://www.immoweb.be/en/classified/duplex/for-sale/diepenbeek/3590/20347903,20347903,DIEPENBEEK,3590,287612,APARTMENT,DUPLEX,2,97.0,0.0,0,10.0,0.0,2.0,0,0.0,INSTALLED,UNKNOWN,FOR_SALE,Dorpsstraat,5.4208826,50.9081513
17,https://www.immoweb.be/en/classified/house/for-sale/beringen/3581/20376880,20376880,BERINGEN,3581,269000,HOUSE,HOUSE,3,169.0,0.0,0,22.0,0.0,3.0,0,801.0,HYPER_EQUIPPED,TO_RENOVATE,FOR_SALE,,,
18,https://www.immoweb.be/en/classified/house/for-sale/emines/5080/20183321,20183321,Émines,5080,309000,HOUSE,HOUSE,3,131.0,0.0,0,25.0,157.0,3.0,1,275.0,INSTALLED,GOOD,FOR_SALE,Place Serge Dauginet,4.839488999999999,50.5136419
19,https://www.immoweb.be/en/classified/penthouse/for-sale/kinrooi/3640/20343715,20343715,KINROOI,3640,325000,APARTMENT,PENTHOUSE,2,148.0,0.0,0,16.0,0.0,0.0,0,0.0,INSTALLED,UNKNOWN,FOR_SALE,Neeroetersesteenweg,5.7412892,51.14228139999999
20,https://www.immoweb.be/en/classified/house/for-sale/gingelom/3891/11432173,11432173,Gingelom,3891,352000,HOUSE,HOUSE,3,176.0,0.0,0,22.0,665.0,4.0,0,825.0,UNKNOWN,AS_NEW,FOR_SALE,Truilingenstraat,5.174344899999999,50.7542969
21,https://www.immoweb.be/en/classified/farmhouse/for-sale/herstappe/3717/20270421,20270421,Herstappe,3717,700000,HOUSE,FARMHOUSE,10,300.0,0.0,0,36.0,0.0,4.0,0,2991.0,UNKNOWN,TO_RENOVATE,FOR_SALE,Rue du Village,5.4244493,50.7271483
22,https://www.immoweb.be/en/classified/apartment/for-sale/diepenbeek/3590/20321131,20321131,Diepenbeek,3590,275000,APARTMENT,APARTMENT,2,85.0,0.0,0,11.0,0.0,2.0,1,0.0,INSTALLED,AS_NEW,FOR_SALE,Kapelstraat,5.417269,50.9098698
23,https://www.immoweb.be/en/classified/house/for-sale/la-bruyere/5080/20336558,20336558,La Bruyère,5080,369900,HOUSE,HOUSE,3,154.0,0.0,0,20.0,0.0,3.0,1,573.0,INSTALLED,AS_NEW,FOR_SALE,Rue De Namur-Perwez,4.8488709,50.5250537
24,https://www.immoweb.be/en/classified/house/for-sale/paal/3583/20361199,20361199,PAAL,3583,469000,HOUSE,HOUSE,4,212.0,0.0,0,27.0,0.0,0.0,0,435.0,INSTALLED,GOOD,FOR_SALE,Tervantstraat,5.1793868,51.0502322
25,https://www.immoweb.be/en/classified/house/for-sale/diepenbeek/3590/20323510,20323510,DIEPENBEEK,3590,524000,HOUSE,HOUSE,3,210.0,0.0,0,26.0,0.0,4.0,0,978.0,INSTALLED,GOOD,FOR_SALE,Heidestraat,5.425746,50.9310109
26,https://www.immoweb.be/en/classified/apartment/for-sale/diepenbeek/3590/20323462,20323462,DIEPENBEEK,3590,225000,APARTMENT,APARTMENT,2,90.0,0.0,0,12.0,0.0,2.0,0,0.0,INSTALLED,GOOD,FOR_SALE,Nieuwstraat,,
27,https://www.immoweb.be/en/classified/apartment-block/for-sale/hastiere-heer/5543/10673188,10673188,"Hastière, Heer",5543,175000,HOUSE,APARTMENT_BLOCK,5,270.0,0.0,0,20.0,0.0,3.0,1,0.0,NOT_INSTALLED,TO_RENOVATE,FOR_SALE,Rue du Faubourg,4.8370128,50.1539495
28,https://www.immoweb.be/en/classified/house/for-sale/beringen/3581/20252331,20252331,BERINGEN,3581,235000,HOUSE,HOUSE,2,120.0,0.0,0,18.0,0.0,4.0,0,0.0,SEMI_EQUIPPED,TO_RENOVATE,FOR_SALE,Stalsesteenweg,5.2518174,51.0818641
29,https://www.immoweb.be/en/classified/farmhouse/for-sale/gingelom/3891/20109703,20109703,GINGELOM,3891,335000,HOUSE,FARMHOUSE,3,354.0,0.0,0,41.0,0.0,4.0,0,1200.0,UNKNOWN,TO_RENOVATE,FOR_SALE,Hemelrijkstraat,5.1799899,50.7381298
30,https://www.immoweb.be/en/classified/house/for-sale/la-bruyere/5080/11237681,11237681,La Bruyère,5080,695000,HOUSE,HOUSE,5,285.0,0.0,0,30.0,0.0,3.0,1,2913.0,HYPER_EQUIPPED,GOOD,FOR_SALE,,,
31,https://www.immoweb.be/en/classified/house/for-sale/otegem/8553/10884173,10884173,OTEGEM,8553,372000,HOUSE,HOUSE,3,125.0,0.0,0,20.0,0.0,3.0,0,649.0,UNKNOWN,UNKNOWN,FOR_SALE,Zwevegemstraat,3.4086132,50.8130143
32,https://www.immoweb.be/en/classified/house/for-sale/otegem/8553/11122343,11122343,Otegem,8553,325000,HOUSE,HOUSE,4,139.0,0.0,0,20.0,0.0,4.0,0,1598.0,UNKNOWN,TO_RENOVATE,FOR_SALE,Zwevegemstraat,3.4060006,50.8144672
33,https://www.immoweb.be/en/classified/penthouse/for-sale/kinrooi/3640/20147193,20147193,Kinrooi,3640,450000,APARTMENT,PENTHOUSE,2,145.0,0.0,0,73.0,0.0,4.0,0,0.0,UNKNOWN,GOOD,FOR_SALE,Weertersteenweg,5.7364367,51.1718367
34,https://www.immoweb.be/en/classified/house/for-sale/beverlo/3581/20337228,20337228,BEVERLO,3581,599000,HOUSE,HOUSE,4,251.0,0.0,0,30.0,0.0,4.0,0,1009.0,INSTALLED,GOOD,FOR_SALE,Braamstraat,5.2248019,51.0993056
35,https://www.immoweb.be/en/classified/duplex/for-sale/diepenbeek/3590/20347902,20347902,DIEPENBEEK,3590,279725,APARTMENT,DUPLEX,2,95.0,0.0,0,10.0,0.0,2.0,0,0.0,INSTALLED,UNKNOWN,FOR_SALE,Dorpsstraat,5.4208826,50.9081513
36,https://www.immoweb.be/en/classified/house/for-sale/gingelom/3891/20189671,20189671,GINGELOM,3891,439000,HOUSE,HOUSE,3,242.0,0.0,0,30.0,0.0,4.0,0,236.0,INSTALLED,JUST_RENOVATED,FOR_SALE,Smidstraat,5.215506599999999,50.7597495
37,https://www.immoweb.be/en/classified/house/for-sale/beverlo/3581/11335370,11335370,Beverlo,3581,425000,HOUSE,HOUSE,4,168.0,0.0,0,22.0,953.0,4.0,1,1185.0,UNKNOWN,GOOD,FOR_SALE,,,
38,https://www.immoweb.be/en/classified/house/for-sale/la-bruyere/5080/10758491,10758491,La Bruyère,5080,299000,HOUSE,HOUSE,4,241.0,0.0,0,30.0,0.0,0.0,0,485.0,UNKNOWN,GOOD,FOR_SALE,Place des Combattants,4.805553199999999,50.50712859999999
39,https://www.immoweb.be/en/classified/house/for-sale/la-bruyere/5080/20230981,20230981,La Bruyère,5080,599000,HOUSE,HOUSE,5,273.0,0.0,0,30.0,0.0,4.0,1,1670.0,INSTALLED,AS_NEW,FOR_SALE,,,
40,https://www.immoweb.be/en/classified/house/for-sale/la-bruyere/5080/20242227,20242227,La Bruyère,5080,385000,HOUSE,HOUSE,3,145.0,0.0,0,20.0,1400.0,4.0,1,1666.0,HYPER_EQUIPPED,GOOD,FOR_SALE,Rue des Crolaux,4.8432244,50.5131802
41,https://www.immoweb.be/en/classified/house/for-sale/paal/3583/20363885,20363885,Paal,3583,346866,HOUSE,HOUSE,3,143.0,0.0,0,20.0,0.0,4.0,0,434.0,INSTALLED,UNKNOWN,FOR_SALE,Haagdoornstraat,5.1689356,51.03548929999999
42,https://www.immoweb.be/en/classified/house/for-sale/hastiere/5543/20283410,20283410,Hastière,5543,285000,HOUSE,HOUSE,5,175.0,0.0,0,20.0,650.0,4.0,1,870.0,INSTALLED,GOOD,FOR_SALE,Rue du Faubourg,4.8338161,50.15897229999999
43,https://www.immoweb.be/en/classified/house/for-sale/beverlo/3581/11084451,11084451,Beverlo,3581,255000,HOUSE,HOUSE,3,200.0,0.0,0,25.0,0.0,0.0,0,341.0,UNKNOWN,GOOD,FOR_SALE,Korspelsesteenweg,5.245854,51.0886282
44,https://www.immoweb.be/en/classified/house/for-sale/beringen/3581/20097163,20097163,Beringen,3581,334144,HOUSE,HOUSE,3,140.0,0.0,0,20.0,0.0,3.0,1,535.0,UNKNOWN,UNKNOWN,FOR_SALE,Heppensesteenweg,5.224503599999999,51.0891106
45,https://www.immoweb.be/en/classified/castle/for-sale/rhisnes/5080/20149888,20149888,RHISNES,5080,1599999,HOUSE,CASTLE,41,760.0,0.0,0,60.0,0.0,4.0,0,0.0,UNKNOWN,UNKNOWN,FOR_SALE,,,
46,https://www.immoweb.be/en/classified/villa/for-sale/kinrooi/3640/20154000,20154000,Kinrooi,3640,769000,HOUSE,VILLA,4,278.0,0.0,0,30.0,0.0,4.0,1,2157.0,UNKNOWN,AS_NEW,FOR_SALE,Belestraat,5.728107899999999,51.1512711
47,https://www.immoweb.be/en/classified/house/for-sale/paal/3583/20347412,20347412,PAAL,3583,408318,HOUSE,HOUSE,3,198.0,0.0,0,25.0,0.0,3.0,0,305.0,INSTALLED,UNKNOWN,FOR_SALE,Zorgstraat,5.1670713,51.0347399
48,https://www.immoweb.be/en/classified/house/for-sale/kinrooi/3640/20240894,20240894,KINROOI,3640,440000,HOUSE,HOUSE,3,168.0,0.0,0,22.0,0.0,3.0,0,296.0,INSTALLED,UNKNOWN,FOR_SALE,Linssenhof,5.7512482,51.1534373
49,https://www.immoweb.be/en/classified/ground-floor/for-sale/kinrooi/3640/20343717,20343717,KINROOI,3640,263000,APARTMENT,GROUND_FLOOR,2,106.0,0.0,0,24.0,42.0,0.0,0,0.0,INSTALLED,UNKNOWN,FOR_SALE,Neeroetersesteenweg,5.7412892,51.14228139999999
50,https://www.immoweb.be/en/classified/apartment/for-sale/paal/3583/20356422,20356422,PAAL,3583,301000,APARTMENT,APARTMENT,2,92.0,0.0,0,25.0,0.0,3.0,0,0.0,INSTALLED,UNKNOWN,FOR_SALE,Kapelstraat,5.171852599999999,51.0383059
51,https://www.immoweb.be/en/classified/house/for-sale/tessenderlo/3980/20323497,20323497,TESSENDERLO,3980,289000,HOUSE,HOUSE,3,162.0,0.0,0,22.0,0.0,4.0,0,1214.0,SEMI_EQUIPPED,TO_RENOVATE,FOR_SALE,Boekdonkstraat,5.0209221,51.0641899
52,https://www.immoweb.be/en/classified/house/for-sale/rhisnes/5080/20101593,20101593,RHISNES,5080,365000,HOUSE,HOUSE,4,165.0,0.0,1,22.0,716.0,4.0,0,716.0,SEMI_EQUIPPED,TO_BE_DONE_UP,FOR_SALE,,,
53,https://www.immoweb.be/en/classified/house/for-sale/tessenderlo/3980/20320456,20320456,TESSENDERLO,3980,249000,HOUSE,HOUSE,3,123.0,0.0,0,19.0,0.0,3.0,0,1520.0,SEMI_EQUIPPED,TO_RENOVATE,FOR_SALE,Schoterweg,5.0682884,51.0652918
54,https://www.immoweb.be/en/classified/house/for-sale/diepenbeek/3590/20369758,20369758,Diepenbeek,3590,398000,HOUSE,HOUSE,3,280.0,0.0,0,28.0,0.0,0.0,0,1737.0,INSTALLED,UNKNOWN,FOR_SALE,dooistraat,5.4193786,50.89837230000001
55,https://www.immoweb.be/en/classified/chalet/for-sale/kinrooi/3640/20041210,20041210,Kinrooi,3640,66950,HOUSE,CHALET,3,158.0,0.0,0,18.0,0.0,4.0,1,180.0,UNKNOWN,UNKNOWN,FOR_SALE,Steyvershofstraat,5.756969,51.1327045
56,https://www.immoweb.be/en/classified/house/for-sale/kinrooi/3640/20366453,20366453,KINROOI,3640,349000,HOUSE,HOUSE,3,221.0,0.0,0,28.0,0.0,4.0,0,3296.0,UNKNOWN,TO_RENOVATE,FOR_SALE,Breeërsteenweg,5.7547681,51.1450378
57,https://www.immoweb.be/en/classified/house/for-sale/beringen/3581/20179195,20179195,Beringen,3581,225000,HOUSE,HOUSE,3,140.0,0.0,0,20.0,104.0,3.0,0,322.0,UNKNOWN,TO_RENOVATE,FOR_SALE,Beverlo-Dorp,5.2215555,51.08782979999999
58,https://www.immoweb.be/en/classified/house/for-sale/paal/3583/20347414,20347414,PAAL,3583,365814,HOUSE,HOUSE,3,160.0,0.0,0,22.0,0.0,3.0,0,310.0,INSTALLED,UNKNOWN,FOR_SALE,Zorgstraat,5.1670713,51.0347399
59,https://www.immoweb.be/en/classified/house/for-sale/beringen/3583/20350515,20350515,Beringen,3583,379000,HOUSE,HOUSE,4,173.0,0.0,0,22.0,760.0,4.0,0,1290.0,UNKNOWN,AS_NEW,FOR_SALE,Klein Oelenstraat,5.1962895,51.0527395
60,https://www.immoweb.be/en/classified/house/for-sale/diepenbeek/3590/20323477,20323477,DIEPENBEEK,3590,399000,HOUSE,HOUSE,5,331.0,0.0,0,40.0,0.0,4.0,0,1047.0,INSTALLED,GOOD,FOR_SALE,Schabertstraat,5.418595,50.9199303
61,https://www.immoweb.be/en/classified/house/for-sale/borlo/3891/20394131,20394131,Borlo,3891,375000,HOUSE,HOUSE,0,157.0,0.0,0,21.0,0.0,0.0,0,255.0,UNKNOWN,GOOD,FOR_SALE,Jeuksestraat,5.1771663,50.74317629999999
62,https://www.immoweb.be/en/classified/apartment/for-sale/beringen/3581/20397631,20397631,BERINGEN,3581,195000,APARTMENT,APARTMENT,2,100.0,0.0,0,13.0,0.0,3.0,0,0.0,INSTALLED,GOOD,FOR_SALE,Heppensesteenweg,5.2240969,51.0892534
63,https://www.immoweb.be/en/classified/house/for-sale/diepenbeek/3590/20266220,20266220,Diepenbeek,3590,399000,HOUSE,HOUSE,3,216.0,0.0,0,27.0,0.0,3.0,0,832.0,UNKNOWN,JUST_RENOVATED,FOR_SALE,Jagersstraat,5.4671948,50.9162817
64,https://www.immoweb.be/en/classified/house/for-sale/beringen/3583/20317959,20317959,Beringen,3583,409000,HOUSE,HOUSE,4,284.0,0.0,1,5.0,681.0,4.0,0,805.0,UNKNOWN,AS_NEW,FOR_SALE,Wilbroek,5.1454016,51.0503232
65,https://www.immoweb.be/en/classified/apartment/for-sale/kinrooi/3640/20343726,20343726,KINROOI,3640,267000,APARTMENT,APARTMENT,2,109.0,0.0,0,10.0,0.0,0.0,0,0.0,INSTALLED,UNKNOWN,FOR_SALE,Neeroetersesteenweg,5.7412892,51.14228139999999
66,https://www.immoweb.be/en/classified/apartment/for-sale/paal/3583/20356424,20356424,PAAL,3583,297000,APARTMENT,APARTMENT,2,109.0,0.0,0,8.0,0.0,3.0,0,0.0,INSTALLED,UNKNOWN,FOR_SALE,Kapelstraat,5.171852599999999,51.0383059
67,https://www.immoweb.be/en/classified/house/for-sale/beringen/3583/20127889,20127889,Beringen,3583,333712,HOUSE,HOUSE,3,150.0,0.0,0,20.0,1.0,3.0,1,419.0,UNKNOWN,UNKNOWN,FOR_SALE,,,
68,https://www.immoweb.be/en/classified/house/for-sale/otegem/8553/10884175,10884175,OTEGEM,8553,327000,HOUSE,HOUSE,3,125.0,0.0,0,20.0,0.0,3.0,0,456.0,UNKNOWN,UNKNOWN,FOR_SALE,Zwevegemstraat,3.4086132,50.8130143
69,https://www.immoweb.be/en/classified/house/for-sale/beringen/3581/11151257,11151257,BERINGEN,3581,230000,HOUSE,HOUSE,5,196.0,0.0,0,25.0,0.0,3.0,0,206.0,SEMI_EQUIPPED,TO_BE_DONE_UP,FOR_SALE,,,
70,https://www.immoweb.be/en/classified/house/for-sale/otegem-zwevegem/8553/11484937,11484937,Otegem (Zwevegem),8553,449000,HOUSE,HOUSE,3,209.0,0.0,0,25.5,0.0,4.0,1,1149.0,UNKNOWN,UNKNOWN,FOR_SALE,Scheldestraat,3.4354192,50.7966373
71,https://www.immoweb.be/en/classified/villa/for-sale/otegem/8553/20353050,20353050,Otegem,8553,1200000,HOUSE,VILLA,4,461.0,0.0,0,40.0,0.0,0.0,0,10000.0,UNKNOWN,UNKNOWN,FOR_SALE,,,
72,https://www.immoweb.be/en/classified/house/for-sale/zwevegem-otegem/8553/20393338,20393338,Zwevegem Otegem,8553,372000,HOUSE,HOUSE,3,158.0,0.0,0,21.0,0.0,3.0,1,647.0,HYPER_EQUIPPED,AS_NEW,FOR_SALE,,,
73,https://www.immoweb.be/en/classified/house/for-sale/diepenbeek/3590/20378345,20378345,Diepenbeek,3590,325000,HOUSE,HOUSE,3,209.0,0.0,0,25.5,0.0,4.0,1,2657.0,UNKNOWN,UNKNOWN,FOR_SALE,Kukkelbosstraat,5.4350776,50.887624
74,https://www.immoweb.be/en/classified/apartment/for-sale/diepenbeek/3590/20347900,20347900,DIEPENBEEK,3590,464260,APARTMENT,APARTMENT,3,157.0,0.0,0,20.0,0.0,2.0,0,0.0,INSTALLED,UNKNOWN,FOR_SALE,Dorpsstraat,5.4208826,50.9081513
75,https://www.immoweb.be/en/classified/house/for-sale/otegem/8553/20184269,20184269,Otegem,8553,695000,HOUSE,HOUSE,4,205.0,0.0,0,25.0,0.0,4.0,1,1178.0,INSTALLED,AS_NEW,FOR_SALE,Scheldestraat,3.4250348,50.8066548
76,https://www.immoweb.be/en/classified/apartment/for-sale/kinrooi/3640/20343719,20343719,KINROOI,3640,212000,APARTMENT,APARTMENT,1,84.0,0.0,0,11.0,0.0,0.0,0,0.0,INSTALLED,UNKNOWN,FOR_SALE,Neeroetersesteenweg,5.7412892,51.14228139999999
77,https://www.immoweb.be/en/classified/house/for-sale/zwevegem/8553/20359562,20359562,Zwevegem,8553,235000,HOUSE,HOUSE,3,132.0,0.0,0,40.0,125.0,3.0,1,233.0,INSTALLED,GOOD,FOR_SALE,Klein Ronsestraat,3.4287566,50.8065712
78,https://www.immoweb.be/en/classified/house/for-sale/paal/3583/20347413,20347413,PAAL,3583,412638,HOUSE,HOUSE,3,198.0,0.0,0,25.0,0.0,3.0,0,328.0,INSTALLED,UNKNOWN,FOR_SALE,Zorgstraat,5.1670713,51.0347399
79,https://www.immoweb.be/en/classified/farmhouse/for-sale/otegem/8553/20377214,20377214,Otegem,8553,1249000,HOUSE,FARMHOUSE,5,282.0,0.0,0,30.0,0.0,0.0,0,6342.0,INSTALLED,GOOD,FOR_SALE,,,
80,https://www.immoweb.be/en/classified/house/for-sale/otegem/8553/20390356,20390356,Otegem,8553,245000,HOUSE,HOUSE,5,225.0,0.0,0,28.0,156.0,2.0,0,316.0,UNKNOWN,GOOD,FOR_SALE,,,
81,https://www.immoweb.be/en/classified/house/for-sale/saint-hubert/6870/20309047,20309047,Saint-Hubert,6870,195000,HOUSE,HOUSE,3,193.0,0.0,0,25.0,0.0,2.0,1,250.0,UNKNOWN,UNKNOWN,FOR_SALE,Rue du Mont,5.375941,50.0227853
82,https://www.immoweb.be/en/classified/house/for-sale/ittrevirginal/1460/20378925,20378925,Ittre(Virginal),1460,445000,HOUSE,HOUSE,3,178.0,0.0,0,23.0,0.0,2.0,1,305.0,UNKNOWN,GOOD,FOR_SALE,Rue de Samme 80,4.20587,50.63983
83,https://www.immoweb.be/en/classified/house/for-sale/saint-hubert/6870/20360499,20360499,Saint-Hubert,6870,265000,HOUSE,HOUSE,3,381.0,0.0,0,50.0,0.0,4.0,1,331.0,UNKNOWN,UNKNOWN,FOR_SALE,Rue des Ardennes,5.2939063,50.0192007
84,https://www.immoweb.be/en/classified/house/for-sale/ittre-virginal/1460/20379188,20379188,Ittre (Virginal),1460,445000,HOUSE,HOUSE,3,142.0,0.0,0,20.0,0.0,4.0,1,378.0,UNKNOWN,GOOD,FOR_SALE,Rue de Samme 80,4.2214621,50.6476451
85,https://www.immoweb.be/en/classified/house/for-sale/ittre-virginal/1460/20378976,20378976,Ittre (Virginal),1460,470000,HOUSE,HOUSE,4,186.0,0.0,0,24.0,0.0,3.0,1,491.0,UNKNOWN,GOOD,FOR_SALE,Rue de Samme 80,4.2214621,50.6476451
86,https://www.immoweb.be/en/classified/house/for-sale/ittre-virginal/1460/20378926,20378926,Ittre (Virginal),1460,440000,HOUSE,HOUSE,3,130.0,0.0,0,20.0,0.0,3.0,1,405.0,UNKNOWN,GOOD,FOR_SALE,Rue de Samme 80,4.2214621,50.6476451
87,https://www.immoweb.be/en/classified/apartment/for-sale/mortsel/2640/20360080,20360080,MORTSEL,2640,159000,APARTMENT,APARTMENT,2,80.0,0.0,0,10.0,0.0,2.0,0,0.0,INSTALLED,TO_BE_DONE_UP,FOR_SALE,Antwerpsestraat,4.442688599999999,51.1737568
88,https://www.immoweb.be/en/classified/apartment/for-sale/mortsel/2640/20360083,20360083,MORTSEL,2640,235000,APARTMENT,APARTMENT,2,89.0,0.0,0,11.0,0.0,2.0,0,0.0,SEMI_EQUIPPED,GOOD,FOR_SALE,Meidoorn,4.4640904,51.1780546
89,https://www.immoweb.be/en/classified/house/for-sale/niel/2845/20397901,20397901,Niel,2845,239000,HOUSE,HOUSE,2,105.0,0.0,0,14.0,0.0,2.0,0,98.0,HYPER_EQUIPPED,UNKNOWN,FOR_SALE,Boomsestraat,4.347585599999999,51.0991284
90,https://www.immoweb.be/en/classified/town-house/for-sale/hatrival/6870/20341708,20341708,Hatrival,6870,199000,HOUSE,TOWN_HOUSE,3,189.0,0.0,0,24.0,0.0,4.0,1,1545.0,NOT_INSTALLED,UNKNOWN,FOR_SALE,Rue des Carrières,5.348103,50.0037258
91,https://www.immoweb.be/en/classified/house/for-sale/saint-hubert/6870/20257824,20257824,Saint-Hubert,6870,299000,HOUSE,HOUSE,3,129.0,0.0,1,20.0,0.0,4.0,0,6682.0,SEMI_EQUIPPED,TO_RENOVATE,FOR_SALE,Rue de Lavaux,5.382783799999999,50.0265496
92,https://www.immoweb.be/en/classified/house/for-sale/saint-hubert/6870/20213088,20213088,SAINT-HUBERT,6870,99000,HOUSE,HOUSE,2,64.0,0.0,0,10.0,0.0,2.0,1,35.0,UNKNOWN,UNKNOWN,FOR_SALE,rue du Mont,5.376669499999999,50.0226627
93,https://www.immoweb.be/en/classified/house/for-sale/nivelles/1401/20237562,20237562,Nivelles,1401,900000,HOUSE,HOUSE,4,296.0,0.0,0,34.5,0.0,4.0,1,29750.0,UNKNOWN,UNKNOWN,FOR_SALE,,,
94,https://www.immoweb.be/en/classified/villa/for-sale/baulers/1401/11420219,11420219,BAULERS,1401,550000,HOUSE,VILLA,3,153.0,0.0,0,10.0,4495.0,4.0,0,5106.0,SEMI_EQUIPPED,TO_RENOVATE,FOR_SALE,Rue de Dinant,4.3512711,50.61714629999999
95,https://www.immoweb.be/en/classified/house/for-sale/ittre/1460/20363794,20363794,Ittre,1460,498000,HOUSE,HOUSE,4,198.0,0.0,0,75.0,1112.0,3.0,1,1234.0,INSTALLED,GOOD,FOR_SALE,Rue de Huleu,4.2590823,50.6453602
96,https://www.immoweb.be/en/classified/house/for-sale/saint-hubert-mirwart/6870/20125321,20125321,"Saint-Hubert, Mirwart",6870,299000,HOUSE,HOUSE,4,215.0,0.0,0,27.0,0.0,3.0,1,386.0,INSTALLED,GOOD,FOR_SALE,Rue du Staplisse,5.266147399999999,50.0563221
97,https://www.immoweb.be/en/classified/apartment/for-sale/mortsel/2640/20359487,20359487,MORTSEL,2640,247000,APARTMENT,APARTMENT,2,93.0,0.0,0,12.0,0.0,2.0,0,0.0,INSTALLED,GOOD,FOR_SALE,Antwerpsestraat,4.4459607,51.172428
98,https://www.immoweb.be/en/classified/apartment/for-sale/mortsel/2640/20379298,20379298,MORTSEL,2640,369000,APARTMENT,APARTMENT,2,122.0,0.0,0,6.0,35.0,0.0,0,0.0,INSTALLED,JUST_RENOVATED,FOR_SALE,Statielei,4.450641699999999,51.1706045
99,https://www.immoweb.be/en/classified/ground-floor/for-sale/mortsel/2640/20384707,20384707,MORTSEL,2640,299000,APARTMENT,GROUND_FLOOR,2,85.0,0.0,0,18.0,53.0,2.0,0,0.0,INSTALLED,GOOD,FOR_SALE,Roderveldlaan,4.444365599999999,51.1843871
100,https://www.immoweb.be/en/classified/exceptional-property/for-sale/niel/2845/20333103,20333103,NIEL,2845,725000,HOUSE,EXCEPTIONAL_PROPERTY,5,401.0,0.0,1,44.0,668.0,4.0,0,794.0,INSTALLED,GOOD,FOR_SALE,Kapelstraat,4.3276322,51.1060005
101,https://www.immoweb.be/en/classified/apartment/for-sale/mortsel/2640/20360072,20360072,MORTSEL,2640,179000,APARTMENT,APARTMENT,2,86.0,0.0,0,9.0,0.0,2.0,0,0.0,SEMI_EQUIPPED,GOOD,FOR_SALE,Krijgsbaan,4.455186299999999,51.1753122
102,https://www.immoweb.be/en/classified/apartment/for-sale/mortsel/2640/20393572,20393572,MORTSEL,2640,259000,APARTMENT,APARTMENT,2,74.0,0.0,0,10.0,0.0,3.0,0,0.0,INSTALLED,GOOD,FOR_SALE,Liersesteenweg,4.470405899999999,51.1689792
103,https://www.immoweb.be/en/classified/house/for-sale/niel/2845/20380468,20380468,Niel,2845,325000,HOUSE,HOUSE,3,133.0,0.0,0,20.0,0.0,2.0,0,85.0,INSTALLED,GOOD,FOR_SALE,Edward Claessenslaan,4.3248636,51.1125427
104,https://www.immoweb.be/en/classified/apartment/for-sale/mortsel/2640/20375953,20375953,MORTSEL,2640,279000,APARTMENT,APARTMENT,3,99.0,0.0,1,12.0,0.0,3.0,0,0.0,INSTALLED,GOOD,FOR_SALE,Deurnestraat,4.446530099999999,51.1787299
105,https://www.immoweb.be/en/classified/house/for-sale/saint-hubert-awenne/6870/20391073,20391073,"Saint-Hubert, Awenne",6870,130000,HOUSE,HOUSE,4,180.0,0.0,0,24.0,0.0,3.0,1,376.0,NOT_INSTALLED,TO_RENOVATE,FOR_SALE,Rue du Fourneau Saint-Michel,5.3079294,50.0734754
106,https://www.immoweb.be/en/classified/house/for-sale/ittre-virginal/1460/20378981,20378981,Ittre (Virginal),1460,440000,HOUSE,HOUSE,3,130.0,0.0,0,20.0,0.0,3.0,1,409.0,UNKNOWN,GOOD,FOR_SALE,Rue de Samme 80,4.2214621,50.6476451
107,https://www.immoweb.be/en/classified/chalet/for-sale/hatrival-saint-hubert/6870/20344131,20344131,Hatrival (Saint-Hubert),6870,185000,HOUSE,CHALET,2,66.0,0.0,0,10.0,0.0,4.0,1,1050.0,UNKNOWN,UNKNOWN,FOR_SALE,Rue de Namoisy,5.342759699999999,50.0052485
108,https://www.immoweb.be/en/classified/villa/for-sale/nivelles/1401/20264514,20264514,Nivelles,1401,399000,HOUSE,VILLA,4,170.0,0.0,0,50.0,907.0,4.0,1,1040.0,INSTALLED,TO_BE_DONE_UP,FOR_SALE,Rue Lossignol,4.3437984,50.6122459
109,https://www.immoweb.be/en/classified/house/for-sale/ittre-virginal/1460/20378975,20378975,Ittre (Virginal),1460,445000,HOUSE,HOUSE,3,174.0,0.0,0,22.0,0.0,2.0,1,252.0,UNKNOWN,GOOD,FOR_SALE,Rue de Samme 80,4.2214621,50.6476451
110,https://www.immoweb.be/en/classified/villa/for-sale/saint-hubert/6870/20214651,20214651,SAINT-HUBERT,6870,570000,HOUSE,VILLA,6,263.0,0.0,1,20.0,0.0,4.0,0,2800.0,INSTALLED,AS_NEW,FOR_SALE,La Prunelaie,5.369759699999999,50.0214365
111,https://www.immoweb.be/en/classified/house/for-sale/niel/2845/20392236,20392236,Niel,2845,459000,HOUSE,HOUSE,4,244.0,0.0,1,14.0,60.0,2.0,1,95.0,HYPER_EQUIPPED,JUST_RENOVATED,FOR_SALE,Jozef Wauterslaan,4.3340971,51.1111946
112,https://www.immoweb.be/en/classified/house/for-sale/saint-hubert/6870/20165538,20165538,Saint-Hubert,6870,339000,HOUSE,HOUSE,4,198.0,0.0,0,45.0,0.0,3.0,1,1140.0,UNKNOWN,UNKNOWN,FOR_SALE,Avenue Nestor Martin,5.3655602,50.0264047
113,https://www.immoweb.be/en/classified/apartment/for-sale/mortsel/2640/20360061,20360061,MORTSEL,2640,234000,APARTMENT,APARTMENT,2,89.0,0.0,0,11.0,0.0,0.0,0,0.0,INSTALLED,GOOD,FOR_SALE,Vijf-Aprilwarande,4.4420229,51.1698345
114,https://www.immoweb.be/en/classified/house/for-sale/niel/2845/20072941,20072941,NIEL,2845,245000,HOUSE,HOUSE,3,132.0,0.0,0,6.0,12.0,2.0,0,70.0,SEMI_EQUIPPED,TO_RENOVATE,FOR_SALE,Stationsstraat,4.3369366,51.1121037
115,https://www.immoweb.be/en/classified/apartment-block/for-sale/mortsel/2640/20366359,20366359,MORTSEL,2640,650000,HOUSE,APARTMENT_BLOCK,5,232.0,0.0,0,30.0,60.0,2.0,0,167.0,UNKNOWN,GOOD,FOR_SALE,Vijf-aprilwarande,4.443169699999999,51.1698848
116,https://www.immoweb.be/en/classified/house/for-sale/ittre-virginal/1460/20379191,20379191,Ittre (Virginal),1460,470000,HOUSE,HOUSE,4,186.0,0.0,0,24.0,0.0,3.0,1,491.0,UNKNOWN,GOOD,FOR_SALE,Rue de Samme 80,4.20587,50.63983
117,https://www.immoweb.be/en/classified/house/for-sale/mortsel/2640/20387228,20387228,Mortsel,2640,630000,HOUSE,HOUSE,3,186.0,0.0,0,24.0,32.0,2.0,0,221.0,HYPER_EQUIPPED,JUST_RENOVATED,FOR_SALE,Jozef Hermanslei,4.4351987,51.17446169999999
118,https://www.immoweb.be/en/classified/villa/for-sale/baulers/1401/20159173,20159173,Baulers,1401,319000,HOUSE,VILLA,3,150.0,0.0,0,20.0,1100.0,4.0,1,1266.0,SEMI_EQUIPPED,TO_BE_DONE_UP,FOR_SALE,Rue aux Cailloux,4.3604577,50.6119371
119,https://www.immoweb.be/en/classified/mansion/for-sale/antwerpen/2060/20372132,20372132,ANTWERPEN,2060,499000,HOUSE,MANSION,5,273.0,0.0,0,30.0,92.0,2.0,0,253.0,INSTALLED,GOOD,FOR_SALE,Familiestraat,4.4343747,51.2258702
120,https://www.immoweb.be/en/classified/apartment/for-sale/nivelles/1401/20380077,20380077,Nivelles,1401,250000,APARTMENT,APARTMENT,2,90.0,0.0,0,12.0,0.0,0.0,0,0.0,UNKNOWN,UNKNOWN,FOR_SALE,Chaussée de Mons,4.312706200000001,50.5891686
121,https://www.immoweb.be/en/classified/house/for-sale/ittre-virginal/1460/20378924,20378924,Ittre (Virginal),1460,430000,HOUSE,HOUSE,4,182.0,0.0,0,24.0,0.0,3.0,1,401.0,UNKNOWN,GOOD,FOR_SALE,Rue de Samme 80,4.2189032,50.6482247
122,https://www.immoweb.be/en/classified/house/for-sale/ittre-virginal/1460/20379189,20379189,Ittre (Virginal),1460,450000,HOUSE,HOUSE,3,174.0,0.0,0,22.0,0.0,2.0,1,275.0,UNKNOWN,GOOD,FOR_SALE,Rue de Samme 80,4.2214621,50.6476451
123,https://www.immoweb.be/en/classified/house/for-sale/niel/2845/20393177,20393177,Niel,2845,374000,HOUSE,HOUSE,3,198.0,0.0,0,25.0,0.0,2.0,0,141.0,HYPER_EQUIPPED,UNKNOWN,FOR_SALE,Volkenbondstraat,4.3250054,51.1112935
124,https://www.immoweb.be/en/classified/mixed-use-building/for-sale/antwerpen/2060/20387347,20387347,ANTWERPEN,2060,499000,HOUSE,MIXED_USE_BUILDING,5,273.0,0.0,0,30.0,92.0,2.0,0,253.0,INSTALLED,GOOD,FOR_SALE,Familiestraat,4.4343747,51.2258702
125,https://www.immoweb.be/en/classified/house/for-sale/niel/2845/20394157,20394157,Niel,2845,379000,HOUSE,HOUSE,3,165.0,0.0,0,22.0,0.0,2.0,0,179.0,HYPER_EQUIPPED,UNKNOWN,FOR_SALE,Wirixdreef,4.3224222,51.1081639
126,https://www.immoweb.be/en/classified/house/for-sale/lint/2547/20397003,20397003,LINT,2547,385000,HOUSE,HOUSE,3,112.0,0.0,0,15.0,0.0,4.0,0,670.0,INSTALLED,GOOD,FOR_SALE,Haakveld,4.5153341,51.1238477
127,https://www.immoweb.be/en/classified/duplex/for-sale/rijkevorsel/2310/11444264,11444264,Rijkevorsel,2310,379000,APARTMENT,DUPLEX,2,109.0,0.0,0,11.0,0.0,0.0,0,0.0,INSTALLED,AS_NEW,FOR_SALE,De Klampoven BLOK A,4.7706425,51.3550139
128,https://www.immoweb.be/en/classified/villa/for-sale/baulers/1401/20388704,20388704,BAULERS,1401,560000,HOUSE,VILLA,4,255.0,0.0,1,30.0,0.0,4.0,0,1457.0,UNKNOWN,GOOD,FOR_SALE,,,
129,https://www.immoweb.be/en/classified/house/for-sale/ath-isieres/7822/11285146,11285146,Ath Isières,7822,410054,HOUSE,HOUSE,3,187.0,0.0,0,24.0,0.0,4.0,0,1383.0,UNKNOWN,AS_NEW,FOR_SALE,,,
130,https://www.immoweb.be/en/classified/house/for-sale/mortsel/2640/20375128,20375128,MORTSEL,2640,329000,HOUSE,HOUSE,2,171.0,0.0,0,4.0,76.0,0.0,0,200.0,NOT_INSTALLED,TO_RENOVATE,FOR_SALE,Pastoor de Tiliastraat,4.4759493,51.17025100000001
131,https://www.immoweb.be/en/classified/house/for-sale/niel/2845/20306656,20306656,Niel,2845,305000,HOUSE,HOUSE,4,147.0,0.0,0,20.0,0.0,2.0,0,65.0,UNKNOWN,AS_NEW,FOR_SALE,Antwerpsestraat,4.3297659,51.1064624
132,https://www.immoweb.be/en/classified/house/for-sale/tournai-froidmont/7504/11388049,11388049,Tournai Froidmont,7504,399809,HOUSE,HOUSE,3,189.0,0.0,0,24.0,0.0,4.0,0,1100.0,UNKNOWN,AS_NEW,FOR_SALE,,,
133,https://www.immoweb.be/en/classified/apartment/for-sale/mortsel/2640/20360084,20360084,MORTSEL,2640,259000,APARTMENT,APARTMENT,2,115.0,0.0,0,16.0,0.0,2.0,0,0.0,INSTALLED,GOOD,FOR_SALE,Armand Segerslei,4.4439845,51.1681694
134,https://www.immoweb.be/en/classified/house/for-sale/niel/2845/20244924,20244924,Niel,2845,239000,HOUSE,HOUSE,3,175.0,0.0,0,23.0,0.0,2.0,0,245.0,UNKNOWN,TO_RENOVATE,FOR_SALE,Antwerpsestraat,4.3316374,51.1101597
135,https://www.immoweb.be/en/classified/house/for-sale/rijkevorsel/2310/20222661,20222661,RIJKEVORSEL,2310,430000,HOUSE,HOUSE,5,216.0,0.0,1,27.0,0.0,4.0,0,882.0,SEMI_EQUIPPED,TO_RENOVATE,FOR_SALE,Oostmalsesteenweg,4.7413633,51.32428549999999
136,https://www.immoweb.be/en/classified/villa/for-sale/ath/7822/20382660,20382660,Ath,7822,370000,HOUSE,VILLA,3,150.0,0.0,0,20.0,1400.0,4.0,1,1400.0,INSTALLED,AS_NEW,FOR_SALE,Route De Lessines,3.8348012,50.6726588
137,https://www.immoweb.be/en/classified/house/for-sale/isieres/7822/20014895,20014895,ISIÈRES,7822,420000,HOUSE,HOUSE,5,240.0,0.0,0,30.0,0.0,4.0,0,905.0,UNKNOWN,TO_BE_DONE_UP,FOR_SALE,,,
138,https://www.immoweb.be/en/classified/apartment/for-sale/lint/2547/11069962,11069962,LINT,2547,324000,APARTMENT,APARTMENT,2,114.0,0.0,0,16.0,0.0,2.0,0,0.0,INSTALLED,GOOD,FOR_SALE,Lindelei,4.4983214,51.1290379
139,https://www.immoweb.be/en/classified/apartment/for-sale/antwerpen-2060/2060/20388759,20388759,Antwerpen (2060),2060,219000,APARTMENT,APARTMENT,2,90.0,0.0,0,12.0,0.0,0.0,0,0.0,INSTALLED,GOOD,FOR_SALE,Lange Zavelstraat,4.42786,51.22192949999999
140,https://www.immoweb.be/en/classified/house/for-sale/rijkevorsel/2310/11444227,11444227,Rijkevorsel,2310,435000,HOUSE,HOUSE,3,158.0,0.0,0,21.0,70.0,3.0,0,0.0,INSTALLED,AS_NEW,FOR_SALE,De Veldoven BLOK E,4.7706425,51.3550139
141,https://www.immoweb.be/en/classified/apartment/for-sale/mortsel/2640/20362798,20362798,Mortsel,2640,220000,APARTMENT,APARTMENT,1,60.0,0.0,0,7.0,0.0,0.0,0,0.0,INSTALLED,GOOD,FOR_SALE,Krijgsbaan,4.452494499999999,51.1740107
142,https://www.immoweb.be/en/classified/house/for-sale/meslin-leveque/7822/20106826,20106826,Meslin-l'Evêque,7822,260000,HOUSE,HOUSE,4,112.0,0.0,0,15.0,0.0,4.0,0,722.0,INSTALLED,GOOD,FOR_SALE,Rue de l'Esquinterie,3.8392959,50.63214290000001
143,https://www.immoweb.be/en/classified/apartment/for-sale/lint/2547/11069921,11069921,Lint,2547,299000,APARTMENT,APARTMENT,2,81.0,0.0,0,10.0,0.0,2.0,0,0.0,INSTALLED,GOOD,FOR_SALE,Kinderstraat,4.4976595,51.1250037
144,https://www.immoweb.be/en/classified/house/for-sale/niel/2845/20328730,20328730,NIEL,2845,339000,HOUSE,HOUSE,3,142.0,0.0,0,20.0,77.0,2.0,0,137.0,INSTALLED,GOOD,FOR_SALE,Edward Claessenslaan,4.3261566,51.1127512
145,https://www.immoweb.be/en/classified/apartment/for-sale/antwerpen/2060/20390807,20390807,ANTWERPEN,2060,179900,APARTMENT,APARTMENT,1,60.0,0.0,0,10.0,0.0,3.0,0,0.0,INSTALLED,AS_NEW,FOR_SALE,Herderstraat,4.4292376,51.2232774
146,https://www.immoweb.be/en/classified/house/for-sale/niel/2845/20375551,20375551,NIEL,2845,299000,HOUSE,HOUSE,3,133.0,0.0,0,20.0,0.0,2.0,0,74.0,INSTALLED,GOOD,FOR_SALE,Molenstraat,4.329443599999999,51.10589170000001
147,https://www.immoweb.be/en/classified/house/for-sale/niel/2845/20390129,20390129,NIEL,2845,469000,HOUSE,HOUSE,4,195.0,0.0,0,32.0,66.0,2.0,0,172.0,HYPER_EQUIPPED,JUST_RENOVATED,FOR_SALE,Molenstraat,4.3293854,51.10574949999999
148,https://www.immoweb.be/en/classified/house/for-sale/antwerpen/2060/20372131,20372131,ANTWERPEN,2060,499000,HOUSE,HOUSE,5,273.0,0.0,0,30.0,92.0,2.0,0,253.0,INSTALLED,GOOD,FOR_SALE,Familiestraat,4.4343747,51.2258702
149,https://www.immoweb.be/en/classified/apartment/for-sale/antwerpen/2060/20386759,20386759,ANTWERPEN,2060,279500,APARTMENT,APARTMENT,2,92.0,0.0,0,30.0,0.0,2.0,0,0.0,INSTALLED,GOOD,FOR_SALE,Lange Dijkstraat,4.4178198,51.2265673
150,https://www.immoweb.be/en/classified/house/for-sale/rijkevorsel/2310/20255058,20255058,RIJKEVORSEL,2310,265000,HOUSE,HOUSE,3,156.0,0.0,0,20.5,0.0,4.0,0,481.0,NOT_INSTALLED,UNKNOWN,FOR_SALE,Kerkdreef,4.7814207,51.32933329999999
151,https://www.immoweb.be/en/classified/mixed-use-building/for-sale/lint/2547/10787902,10787902,LINT,2547,575000,HOUSE,MIXED_USE_BUILDING,3,275.0,0.0,1,30.0,0.0,3.0,0,434.0,INSTALLED,GOOD,FOR_SALE,Koning Albertstraat,4.4953756,51.1279068
152,https://www.immoweb.be/en/classified/apartment/for-sale/antwerpen-2060/2060/20377494,20377494,ANTWERPEN 2060,2060,219000,APARTMENT,APARTMENT,1,56.0,0.0,0,12.0,0.0,0.0,0,0.0,INSTALLED,GOOD,FOR_SALE,Ellermanstraat,4.4170893,51.2301643
153,https://www.immoweb.be/en/classified/mixed-use-building/for-sale/antwerpen/2060/20372130,20372130,ANTWERPEN,2060,499000,HOUSE,MIXED_USE_BUILDING,5,273.0,0.0,0,30.0,92.0,2.0,0,253.0,INSTALLED,GOOD,FOR_SALE,Familiestraat,4.4343747,51.2258702
154,https://www.immoweb.be/en/classified/house/for-sale/antwerpen/2060/20387702,20387702,Antwerpen,2060,299000,HOUSE,HOUSE,6,219.0,0.0,0,27.0,3.0,2.0,0,0.0,INSTALLED,GOOD,FOR_SALE,Schoolstraat,4.4330275,51.2255073
155,https://www.immoweb.be/en/classified/house/for-sale/meslin-leveque/7822/10760328,10760328,MESLIN-L'EVÊQUE,7822,297500,HOUSE,HOUSE,3,133.0,0.0,0,20.0,0.0,3.0,0,662.0,UNKNOWN,UNKNOWN,FOR_SALE,RUE DES CRIQUETS,3.8511536,50.6481868
156,https://www.immoweb.be/en/classified/house/for-sale/rijkevorsel/2310/20310143,20310143,Rijkevorsel,2310,350000,HOUSE,HOUSE,3,200.0,0.0,0,25.0,0.0,2.0,1,88.0,USA_INSTALLED,JUST_RENOVATED,FOR_SALE,Stevennekens,4.7731195,51.3294208
157,https://www.immoweb.be/en/classified/apartment/for-sale/lint/2547/20360058,20360058,LINT,2547,269000,APARTMENT,APARTMENT,3,94.0,0.0,0,12.0,0.0,2.0,0,0.0,INSTALLED,GOOD,FOR_SALE,Heidelaan,4.4871465,51.1254014
158,https://www.immoweb.be/en/classified/house/for-sale/niel/2845/20374827,20374827,Niel,2845,215000,HOUSE,HOUSE,2,129.0,0.0,0,20.0,0.0,3.0,0,82.0,INSTALLED,TO_BE_DONE_UP,FOR_SALE,Boomsestraat,4.3350307,51.1023028
159,https://www.immoweb.be/en/classified/house/for-sale/antwerpen/2060/20381587,20381587,ANTWERPEN,2060,650000,HOUSE,HOUSE,7,250.0,0.0,0,30.0,10.0,2.0,0,100.0,SEMI_EQUIPPED,TO_BE_DONE_UP,FOR_SALE,Lange Lobroekstraat,4.4276417,51.2316673
160,https://www.immoweb.be/en/classified/house/for-sale/isieres/7822/20165984,20165984,ISIÈRES,7822,250000,HOUSE,HOUSE,3,138.0,0.0,0,20.0,0.0,3.0,0,712.0,NOT_INSTALLED,UNKNOWN,FOR_SALE,,,
161,https://www.immoweb.be/en/classified/house/for-sale/ghislenghien/7822/20167202,20167202,GHISLENGHIEN,7822,140000,HOUSE,HOUSE,2,126.0,0.0,0,20.0,0.0,2.0,0,570.0,NOT_INSTALLED,TO_RENOVATE,FOR_SALE,Rue des Bénédictines,3.880278799999999,50.6591567
162,https://www.immoweb.be/en/classified/ground-floor/for-sale/rijkevorsel/2310/20381628,20381628,Rijkevorsel,2310,325000,APARTMENT,GROUND_FLOOR,2,110.0,1.0,0,15.0,0.0,3.0,0,0.0,UNKNOWN,AS_NEW,FOR_SALE,Sint-Lenaartsesteenweg,4.7585934,51.3495504
163,https://www.immoweb.be/en/classified/ground-floor/for-sale/mortsel/2640/20262780,20262780,MORTSEL,2640,225000,APARTMENT,GROUND_FLOOR,1,55.0,0.0,0,30.0,106.0,2.0,0,0.0,INSTALLED,GOOD,FOR_SALE,Mechelsesteenweg,4.4542288,51.1659805
164,https://www.immoweb.be/en/classified/house/for-sale/rijkevorsel/2310/20357758,20357758,RIJKEVORSEL,2310,359000,HOUSE,HOUSE,3,126.0,0.0,0,20.0,0.0,3.0,0,315.0,SEMI_EQUIPPED,GOOD,FOR_SALE,Hoogstraatsesteenweg,4.759839200000001,51.3543421
165,https://www.immoweb.be/en/classified/apartment-block/for-sale/antwerpen/2060/20381586,20381586,ANTWERPEN,2060,650000,HOUSE,APARTMENT_BLOCK,7,250.0,0.0,0,30.0,10.0,2.0,0,100.0,SEMI_EQUIPPED,TO_BE_DONE_UP,FOR_SALE,Lange Lobroekstraat,4.4276417,51.2316673
166,https://www.immoweb.be/en/classified/apartment/for-sale/lint/2547/20258193,20258193,LINT,2547,239000,APARTMENT,APARTMENT,3,98.0,0.0,0,12.0,0.0,3.0,0,0.0,SEMI_EQUIPPED,GOOD,FOR_SALE,Kardinaal Cardijnlaan,4.4871503,51.1239532
167,https://www.immoweb.be/en/classified/house/for-sale/ath/7822/20209922,20209922,Ath,7822,395000,HOUSE,HOUSE,4,180.0,0.0,0,1.0,1.0,4.0,1,1200.0,USA_INSTALLED,AS_NEW,FOR_SALE,,,
168,https://www.immoweb.be/en/classified/apartment-block/for-sale/antwerpen/2060/20369300,20369300,ANTWERPEN,2060,595000,HOUSE,APARTMENT_BLOCK,6,384.0,0.0,0,20.0,110.0,2.0,0,272.0,SEMI_EQUIPPED,TO_RENOVATE,FOR_SALE,Delinstraat,4.4242002,51.2208675
169,https://www.immoweb.be/en/classified/house/for-sale/niel/2845/20257162,20257162,NIEL,2845,399000,HOUSE,HOUSE,3,143.0,0.0,0,30.0,120.0,3.0,0,294.0,INSTALLED,GOOD,FOR_SALE,Ringovenlaan,4.3487567,51.1117024
170,https://www.immoweb.be/en/classified/house/for-sale/antwerpen/2060/20386997,20386997,ANTWERPEN,2060,315000,HOUSE,HOUSE,6,186.0,0.0,0,24.0,0.0,2.0,0,85.0,USA_SEMI_EQUIPPED,TO_RENOVATE,FOR_SALE,Biekorfstraat,4.422950699999999,51.2274065
171,https://www.immoweb.be/en/classified/house/for-sale/ath-isieres/7822/11285109,11285109,Ath Isières,7822,375784,HOUSE,HOUSE,3,158.0,0.0,0,21.0,0.0,4.0,0,1350.0,UNKNOWN,AS_NEW,FOR_SALE,,,
172,https://www.immoweb.be/en/classified/apartment/for-sale/antwerpen-2060/2060/20393823,20393823,Antwerpen (2060),2060,165000,APARTMENT,APARTMENT,1,60.0,0.0,0,10.0,0.0,0.0,0,0.0,INSTALLED,UNKNOWN,FOR_SALE,Sint-Gummarusstraat,4.4207097,51.2246911
173,https://www.immoweb.be/en/classified/house/for-sale/niel/2845/20393754,20393754,Niel,2845,275000,HOUSE,HOUSE,3,122.0,0.0,0,19.0,180.0,2.0,0,221.0,SEMI_EQUIPPED,TO_RENOVATE,FOR_SALE,Boomsestraat,4.335258899999999,51.1023321
174,https://www.immoweb.be/en/classified/house/for-sale/lint/2547/20383014,20383014,LINT,2547,585000,HOUSE,HOUSE,3,180.0,0.0,0,24.0,0.0,0.0,0,280.0,UNKNOWN,UNKNOWN,FOR_SALE,Duffelsesteenweg,4.4925563,51.12125289999999
175,https://www.immoweb.be/en/classified/house/for-sale/lint/2547/20360062,20360062,LINT,2547,349000,HOUSE,HOUSE,4,191.0,0.0,0,25.0,0.0,4.0,0,961.0,SEMI_EQUIPPED,TO_RENOVATE,FOR_SALE,Duffelsesteenweg,4.4926545,51.1229405
176,https://www.immoweb.be/en/classified/apartment/for-sale/antwerpen/2060/20368977,20368977,Antwerpen,2060,139000,APARTMENT,APARTMENT,1,52.0,0.0,0,3.0,0.0,3.0,0,0.0,NOT_INSTALLED,GOOD,FOR_SALE,Tulpstraat,4.4242907,51.2263495
177,https://www.immoweb.be/en/classified/house/for-sale/rijkevorsel/2310/20323776,20323776,Rijkevorsel,2310,499000,HOUSE,HOUSE,4,290.0,0.0,0,30.0,0.0,4.0,0,811.0,SEMI_EQUIPPED,TO_BE_DONE_UP,FOR_SALE,Akkerstraat,4.7505826,51.3378469
178,https://www.immoweb.be/en/classified/house/for-sale/meslin-leveque/7822/10760330,10760330,MESLIN-L'EVÊQUE,7822,279500,HOUSE,HOUSE,3,137.0,0.0,0,20.0,0.0,4.0,0,393.0,UNKNOWN,UNKNOWN,FOR_SALE,RUE DES CRIQUETS,3.8511536,50.6481868
179,https://www.immoweb.be/en/classified/house/for-sale/rijkevorsel/2310/11444225,11444225,Rijkevorsel,2310,439000,HOUSE,HOUSE,3,160.0,0.0,0,22.0,76.0,3.0,0,0.0,INSTALLED,AS_NEW,FOR_SALE,De Gamschaar BLOK B,4.7706425,51.3550139
180,https://www.immoweb.be/en/classified/apartment/for-sale/lint/2547/20035674,20035674,LINT,2547,239000,APARTMENT,APARTMENT,2,88.0,0.0,0,11.0,0.0,2.0,0,0.0,INSTALLED,GOOD,FOR_SALE,Heidelaan,4.4861526,51.1256627
181,https://www.immoweb.be/en/classified/house/for-sale/lint/2547/20387734,20387734,Lint,2547,399000,HOUSE,HOUSE,3,117.0,0.0,0,16.0,646.0,4.0,1,763.0,INSTALLED,GOOD,FOR_SALE,Hoog Heibos,4.4908455,51.12067769999999
182,https://www.immoweb.be/en/classified/house/for-sale/rijkevorsel/2310/11444263,11444263,Rijkevorsel,2310,567000,HOUSE,HOUSE,3,229.0,0.0,0,36.0,0.0,3.0,0,0.0,INSTALLED,AS_NEW,FOR_SALE,De Klampoven BLOK A,4.7706425,51.3550139
183,https://www.immoweb.be/en/classified/house/for-sale/poppel/2382/10652672,10652672,POPPEL,2382,99000,HOUSE,HOUSE,3,95.0,0.0,0,12.0,0.0,4.0,0,304.0,SEMI_EQUIPPED,TO_BE_DONE_UP,FOR_SALE,Tulderbos D1,5.0904609,51.4504834
184,https://www.immoweb.be/en/classified/house/for-sale/schelle/2627/20360075,20360075,SCHELLE,2627,419000,HOUSE,HOUSE,5,183.0,0.0,1,24.0,88.0,3.0,0,219.0,INSTALLED,JUST_RENOVATED,FOR_SALE,Peperstraat,4.3341473,51.1263264
185,https://www.immoweb.be/en/classified/house/for-sale/sint-genesius-rode/1640/20398363,20398363,Sint-Genesius-Rode,1640,539000,HOUSE,HOUSE,3,192.0,0.0,0,25.0,0.0,3.0,0,1120.0,UNKNOWN,UNKNOWN,FOR_SALE,Kerkstraat,4.349389599999999,50.7442291
186,https://www.immoweb.be/en/classified/villa/for-sale/ravels/2382/20377452,20377452,Ravels,2382,895000,HOUSE,VILLA,6,672.0,0.0,1,100.0,1650.0,4.0,1,1650.0,USA_INSTALLED,AS_NEW,FOR_SALE,Steenweg Weelde,5.028541400000001,51.436648
187,https://www.immoweb.be/en/classified/chalet/for-sale/poppel/2382/20323806,20323806,Poppel,2382,84000,HOUSE,CHALET,1,52.0,0.0,0,10.0,0.0,4.0,0,210.0,USA_INSTALLED,UNKNOWN,FOR_SALE,Tulderbos,5.0827802,51.4431924
188,https://www.immoweb.be/en/classified/apartment/for-sale/borsbeek/2150/20389401,20389401,Borsbeek,2150,210000,APARTMENT,APARTMENT,2,88.0,0.0,0,7.0,0.0,2.0,1,0.0,INSTALLED,GOOD,FOR_SALE,Verbindingslaan,4.481301999999999,51.1993759
189,https://www.immoweb.be/en/classified/apartment/for-sale/schelle/2627/20178954,20178954,Schelle,2627,349995,APARTMENT,APARTMENT,3,102.0,0.0,0,13.0,0.0,0.0,1,0.0,UNKNOWN,AS_NEW,FOR_SALE,Provinciale Steenweg,4.3339149,51.1175964
190,https://www.immoweb.be/en/classified/house/for-sale/poppel/2382/20325774,20325774,Poppel,2382,849000,HOUSE,HOUSE,6,671.0,0.0,1,70.0,0.0,4.0,0,2437.0,INSTALLED,GOOD,FOR_SALE,Tilburgseweg,5.043591999999999,51.4548085
191,https://www.immoweb.be/en/classified/villa/for-sale/ravels/2382/20023733,20023733,Ravels,2382,760000,HOUSE,VILLA,3,297.0,0.0,0,50.0,0.0,4.0,1,1604.0,HYPER_EQUIPPED,AS_NEW,FOR_SALE,De Meerkens,5.048692099999999,51.4553442
192,https://www.immoweb.be/en/classified/house/for-sale/ravels-weelde/2381/20384681,20384681,Ravels Weelde,2381,374027,HOUSE,HOUSE,3,157.0,0.0,0,21.0,406.0,3.0,0,406.0,UNKNOWN,AS_NEW,FOR_SALE,Scheyfstraat,5.000910999999999,51.4099541
193,https://www.immoweb.be/en/classified/apartment/for-sale/borsbeek/2150/20379870,20379870,Borsbeek,2150,229000,APARTMENT,APARTMENT,3,101.0,0.0,0,13.0,0.0,3.0,0,0.0,INSTALLED,GOOD,FOR_SALE,Schanslaan,4.4934442,51.1962287
194,https://www.immoweb.be/en/classified/town-house/for-sale/schelle/2627/20350248,20350248,Schelle,2627,310000,HOUSE,TOWN_HOUSE,3,140.0,0.0,0,20.0,95.0,3.0,1,260.0,UNKNOWN,UNKNOWN,FOR_SALE,Provinciale Steenweg,4.3366293,51.1291407
195,https://www.immoweb.be/en/classified/house/for-sale/schelle/2627/20178916,20178916,Schelle,2627,405385,HOUSE,HOUSE,3,125.0,0.0,0,20.0,0.0,0.0,1,0.0,UNKNOWN,AS_NEW,FOR_SALE,Provinciale Steenweg,4.3339149,51.1175964
196,https://www.immoweb.be/en/classified/town-house/for-sale/schelle/2627/20285193,20285193,Schelle,2627,399000,HOUSE,TOWN_HOUSE,3,211.0,0.0,0,26.0,55.0,3.0,0,232.0,SEMI_EQUIPPED,GOOD,FOR_SALE,Guido Gezelleplaats,4.3337823,51.12376500000001
197,https://www.immoweb.be/en/classified/villa/for-sale/ravels-poppel/2382/20193582,20193582,Ravels Poppel,2382,845000,HOUSE,VILLA,3,240.0,0.0,1,30.0,795.0,4.0,0,795.0,HYPER_EQUIPPED,AS_NEW,FOR_SALE,Steenweg Weelde,5.028541400000001,51.436648
198,https://www.immoweb.be/en/classified/house/for-sale/poppel/2382/20362350,20362350,Poppel,2382,249000,HOUSE,HOUSE,5,267.0,0.0,0,30.0,0.0,2.0,0,280.0,UNKNOWN,TO_RENOVATE,FOR_SALE,Dorp,5.0433299,51.4473645
199,https://www.immoweb.be/en/classified/apartment/for-sale/borsbeek/2150/20373455,20373455,BORSBEEK,2150,325000,APARTMENT,APARTMENT,3,128.0,0.0,0,20.0,0.0,3.0,0,0.0,INSTALLED,GOOD,FOR_SALE,Corneel Smitslei,4.486136699999999,51.1968792
200,https://www.immoweb.be/en/classified/house/for-sale/kersbeek-miskom/3472/11334776,11334776,Kersbeek-Miskom,3472,330000,HOUSE,HOUSE,3,114.0,0.0,0,16.0,0.0,0.0,0,163.0,INSTALLED,GOOD,FOR_SALE,Miskom-Dorp,5.012222,50.896071
201,https://www.immoweb.be/en/classified/house/for-sale/weelde/2381/20004155,20004155,Weelde,2381,399000,HOUSE,HOUSE,3,155.0,0.0,0,21.0,0.0,3.0,1,265.0,UNKNOWN,GOOD,FOR_SALE,Elzenstraat,4.996868699999999,51.4085938
202,https://www.immoweb.be/en/classified/villa/for-sale/rhode-saint-genese/1640/20180707,20180707,Rhode-Saint-Genèse,1640,2100000,HOUSE,VILLA,7,486.0,0.0,0,60.0,0.0,4.0,0,3000.0,INSTALLED,TO_BE_DONE_UP,FOR_SALE,,,
203,https://www.immoweb.be/en/classified/house/for-sale/weelde/2381/20323567,20323567,Weelde,2381,525000,HOUSE,HOUSE,5,252.0,0.0,0,30.0,0.0,4.0,0,873.0,USA_HYPER_EQUIPPED,JUST_RENOVATED,FOR_SALE,Bredaseweg,4.9382215,51.3937506
204,https://www.immoweb.be/en/classified/house/for-sale/weelde/2381/20004158,20004158,Weelde,2381,459000,HOUSE,HOUSE,3,151.0,0.0,0,20.0,0.0,4.0,1,513.0,UNKNOWN,GOOD,FOR_SALE,Elzenstraat,4.996868699999999,51.4085938
205,https://www.immoweb.be/en/classified/apartment/for-sale/borsbeek/2150/20389863,20389863,BORSBEEK,2150,299000,APARTMENT,APARTMENT,2,103.0,0.0,0,13.0,0.0,2.0,0,0.0,INSTALLED,JUST_RENOVATED,FOR_SALE,Cantincrodelaan,4.4776752,51.1988756
206,https://www.immoweb.be/en/classified/house/for-sale/weelde/2381/20382372,20382372,Weelde,2381,449500,HOUSE,HOUSE,4,136.0,0.0,0,20.0,0.0,3.0,0,209.0,USA_INSTALLED,AS_NEW,FOR_SALE,Olmenstraat,4.997512,51.40822199999999
207,https://www.immoweb.be/en/classified/house/for-sale/weelde/2381/20251152,20251152,Weelde,2381,435000,HOUSE,HOUSE,4,222.0,0.0,1,40.0,680.0,4.0,1,680.0,HYPER_EQUIPPED,GOOD,FOR_SALE,Molenstraat,5.0030201,51.4108804
208,https://www.immoweb.be/en/classified/apartment/for-sale/schelle/2627/20178899,20178899,Schelle,2627,374233,APARTMENT,APARTMENT,0,98.0,0.0,0,12.0,0.0,0.0,1,0.0,UNKNOWN,AS_NEW,FOR_SALE,Provinciale Steenweg,4.3339149,51.1175964
209,https://www.immoweb.be/en/classified/house/for-sale/weelde/2381/20004157,20004157,Weelde,2381,375000,HOUSE,HOUSE,3,163.0,0.0,0,22.0,0.0,3.0,1,223.0,UNKNOWN,GOOD,FOR_SALE,Elzenstraat,4.996868699999999,51.4085938
210,https://www.immoweb.be/en/classified/house/for-sale/schelle/2627/20377136,20377136,Schelle,2627,309000,HOUSE,HOUSE,2,159.0,0.0,0,21.0,0.0,2.0,0,184.0,INSTALLED,UNKNOWN,FOR_SALE,Guido Gezelleplaats,4.33359,51.1242278
211,https://www.immoweb.be/en/classified/villa/for-sale/rhode-saint-genese/1640/20299007,20299007,Rhode-Saint-Genèse,1640,1195000,HOUSE,VILLA,5,395.0,0.0,0,96.0,820.0,4.0,1,1063.0,HYPER_EQUIPPED,AS_NEW,FOR_SALE,Avenue Des Chataigniers,4.380914900000001,50.75287
212,https://www.immoweb.be/en/classified/house/for-sale/kortenaken/3472/20394770,20394770,KORTENAKEN,3472,349500,HOUSE,HOUSE,3,160.0,0.0,0,22.0,0.0,4.0,0,0.0,SEMI_EQUIPPED,TO_BE_DONE_UP,FOR_SALE,Doddelbergstraat,4.9857945,50.8920323
213,https://www.immoweb.be/en/classified/house/for-sale/rhode-saint-genese/1640/20278722,20278722,Rhode-Saint-Genese,1640,975000,HOUSE,HOUSE,7,465.0,0.0,1,40.0,477.0,4.0,1,1960.0,USA_UNINSTALLED,GOOD,FOR_SALE,Av. du Prieuré,4.3501299,50.7187584
214,https://www.immoweb.be/en/classified/house/for-sale/borsbeek/2150/20311128,20311128,Borsbeek,2150,430000,HOUSE,HOUSE,5,182.0,0.0,0,24.0,120.0,2.0,1,205.0,INSTALLED,GOOD,FOR_SALE,Wenigerstraat,4.4777103,51.1979613
215,https://www.immoweb.be/en/classified/villa/for-sale/poppel/2382/20332490,20332490,Poppel,2382,695000,HOUSE,VILLA,4,438.0,0.0,1,40.0,1000.0,4.0,0,1493.0,UNKNOWN,AS_NEW,FOR_SALE,Joelestraat,5.0424867,51.45083899999999
216,https://www.immoweb.be/en/classified/chalet/for-sale/poppel/2382/20371178,20371178,Poppel,2382,110000,HOUSE,CHALET,3,59.0,0.0,1,10.0,0.0,4.0,0,310.0,USA_INSTALLED,UNKNOWN,FOR_SALE,Tulderbos,5.0827802,51.4431924
217,https://www.immoweb.be/en/classified/house/for-sale/welle/9473/20320996,20320996,Welle,9473,539000,HOUSE,HOUSE,3,234.0,0.0,0,20.0,190.0,3.0,1,375.0,INSTALLED,AS_NEW,FOR_SALE,Moortelveld,4.0423765,50.9018989
218,https://www.immoweb.be/en/classified/house/for-sale/weelde/2381/20004156,20004156,Weelde,2381,454000,HOUSE,HOUSE,3,166.0,0.0,0,22.0,0.0,4.0,1,461.0,UNKNOWN,GOOD,FOR_SALE,Elzenstraat,4.996868699999999,51.4085938
219,https://www.immoweb.be/en/classified/house/for-sale/testelt/3272/20059404,20059404,TESTELT,3272,223000,HOUSE,HOUSE,4,226.0,0.0,0,20.0,0.0,3.0,0,388.0,SEMI_EQUIPPED,TO_RENOVATE,FOR_SALE,Stationsstraat,4.9497315,51.0091083
220,https://www.immoweb.be/en/classified/house/for-sale/testelt/3272/20384767,20384767,Testelt,3272,319000,HOUSE,HOUSE,3,131.0,0.0,0,8.0,0.0,0.0,0,131.0,INSTALLED,GOOD,FOR_SALE,Kattestraat,4.9546841,51.0175814
221,https://www.immoweb.be/en/classified/exceptional-property/for-sale/rhode-saint-genese/1640/20379609,20379609,Rhode-Saint-Genese,1640,1339000,HOUSE,EXCEPTIONAL_PROPERTY,4,440.0,0.0,0,100.0,1200.0,4.0,1,1596.0,HYPER_EQUIPPED,GOOD,FOR_SALE,Avenue des Buissons,4.3703117,50.7573938
222,https://www.immoweb.be/en/classified/house/for-sale/herne/1540/20393186,20393186,Herne,1540,379000,HOUSE,HOUSE,2,177.0,0.0,0,23.0,0.0,4.0,1,837.0,INSTALLED,TO_BE_DONE_UP,FOR_SALE,Liezebeekwijk,4.0311005,50.7303911
223,https://www.immoweb.be/en/classified/villa/for-sale/pellenberg/3212/20369479,20369479,PELLENBERG,3212,945000,HOUSE,VILLA,5,416.0,0.0,0,44.0,0.0,4.0,0,2995.0,INSTALLED,UNKNOWN,FOR_SALE,Kleine Ganzendries,4.7940573,50.8683932
224,https://www.immoweb.be/en/classified/house/for-sale/denderleeuw-welle/9473/20345918,20345918,Denderleeuw Welle,9473,295000,HOUSE,HOUSE,3,188.0,0.0,0,24.0,0.0,3.0,0,395.0,SEMI_EQUIPPED,GOOD,FOR_SALE,Hertstraat,4.0501321,50.9025229
225,https://www.immoweb.be/en/classified/house/for-sale/rhode-saint-genese/1640/20369952,20369952,Rhode-Saint-Genèse,1640,180000,HOUSE,HOUSE,2,95.0,0.0,0,20.0,0.0,2.0,1,75.0,NOT_INSTALLED,TO_RENOVATE,FOR_SALE,Rue du Village,4.3455181,50.74563360000001
226,https://www.immoweb.be/en/classified/house/for-sale/sint-genesius-rode/1640/20389797,20389797,Sint-Genesius-Rode,1640,295000,HOUSE,HOUSE,4,123.0,0.0,0,19.5,0.0,3.0,1,477.0,NOT_INSTALLED,TO_BE_DONE_UP,FOR_SALE,Wauterbos,4.3541674,50.7430616
227,https://www.immoweb.be/en/classified/villa/for-sale/pellenberg/3212/20363471,20363471,Pellenberg,3212,1095000,HOUSE,VILLA,4,294.0,0.0,0,32.0,0.0,0.0,0,1832.0,HYPER_EQUIPPED,AS_NEW,FOR_SALE,Schuttersstraat,4.7952091,50.8699608
228,https://www.immoweb.be/en/classified/house/for-sale/sint-genesius-rode/1640/20388190,20388190,SINT-GENESIUS-RODE,1640,580000,HOUSE,HOUSE,3,186.0,0.0,0,24.0,0.0,3.0,0,419.0,SEMI_EQUIPPED,GOOD,FOR_SALE,Terheydestraat,4.3550323,50.73957739999999
229,https://www.immoweb.be/en/classified/house/for-sale/rhode-saint-genese/1640/20386252,20386252,Rhode-Saint-Genèse,1640,1339000,HOUSE,HOUSE,4,440.0,0.0,1,100.0,1200.0,0.0,1,1596.0,HYPER_EQUIPPED,GOOD,FOR_SALE,Struikenlaan - Avenue Des Buissons,4.3703117,50.7573938
230,https://www.immoweb.be/en/classified/house/for-sale/schelle/2627/20368739,20368739,Schelle,2627,425000,HOUSE,HOUSE,3,181.0,0.0,0,24.0,0.0,0.0,0,292.0,UNKNOWN,GOOD,FOR_SALE,Consciencestraat,4.338444,51.1176307
231,https://www.immoweb.be/en/classified/apartment/for-sale/testelt/3272/20387198,20387198,Testelt,3272,319000,APARTMENT,APARTMENT,3,131.0,0.0,0,8.0,0.0,0.0,0,0.0,INSTALLED,GOOD,FOR_SALE,Kattestraat,4.9546841,51.0175814
232,https://www.immoweb.be/en/classified/house/for-sale/testelt/3272/20392871,20392871,TESTELT,3272,200000,HOUSE,HOUSE,3,158.0,0.0,0,21.0,0.0,3.0,0,1095.0,SEMI_EQUIPPED,TO_RENOVATE,FOR_SALE,Rode,4.9462512,51.0070048
233,https://www.immoweb.be/en/classified/apartment/for-sale/welle/9473/20159872,20159872,Welle,9473,235000,APARTMENT,APARTMENT,2,78.0,0.0,0,5.0,0.0,4.0,1,0.0,INSTALLED,GOOD,FOR_SALE,Vissersstraat,4.0486013,50.8988859
234,https://www.immoweb.be/en/classified/chalet/for-sale/ravels-poppel/2382/20396109,20396109,Ravels Poppel,2382,185000,HOUSE,CHALET,4,100.0,0.0,0,13.0,0.0,4.0,0,270.0,UNKNOWN,UNKNOWN,FOR_SALE,Tulderbos,5.0903293,51.4515238
235,https://www.immoweb.be/en/classified/house/for-sale/herne/1540/20347211,20347211,HERNE,1540,1250000,HOUSE,HOUSE,5,315.0,0.0,0,40.0,0.0,4.0,0,2592.0,UNKNOWN,AS_NEW,FOR_SALE,RENDRIES,4.018045799999999,50.7203169
236,https://www.immoweb.be/en/classified/house/for-sale/pellenberg/3212/20198628,20198628,Pellenberg,3212,348000,HOUSE,HOUSE,3,171.0,0.0,0,22.0,0.0,0.0,1,475.0,INSTALLED,UNKNOWN,FOR_SALE,Kerkplein,4.7960674,50.8704974
237,https://www.immoweb.be/en/classified/villa/for-sale/kersbeek-miskom/3472/20356315,20356315,Kersbeek-Miskom,3472,759000,HOUSE,VILLA,6,338.0,0.0,1,61.0,2000.0,6.0,1,10875.0,USA_HYPER_EQUIPPED,GOOD,FOR_SALE,Hoogemeyer,4.9941511,50.8952389
238,https://www.immoweb.be/en/classified/house/for-sale/schelle/2627/20366821,20366821,Schelle,2627,325000,HOUSE,HOUSE,7,325.0,0.0,0,40.0,0.0,3.0,0,170.0,UNKNOWN,TO_BE_DONE_UP,FOR_SALE,Peperstraat,4.3329699,51.1263613
239,https://www.immoweb.be/en/classified/apartment/for-sale/borsbeek/2150/20323705,20323705,BORSBEEK,2150,215000,APARTMENT,APARTMENT,2,87.0,0.0,0,20.0,0.0,2.0,0,0.0,SEMI_EQUIPPED,TO_RENOVATE,FOR_SALE,Wenigerstraat,4.4783601,51.1978626
240,https://www.immoweb.be/en/classified/villa/for-sale/pellenberg/3212/11349424,11349424,Pellenberg,3212,826000,HOUSE,VILLA,4,251.0,0.0,0,1.0,1.0,4.0,1,564.0,HYPER_EQUIPPED,AS_NEW,FOR_SALE,Lostraat,4.791545699999999,50.8729211
241,https://www.immoweb.be/en/classified/apartment/for-sale/welle/9473/20159861,20159861,Welle,9473,245000,APARTMENT,APARTMENT,2,91.0,0.0,0,2.0,0.0,4.0,1,0.0,INSTALLED,GOOD,FOR_SALE,Vissersstraat,4.0486013,50.8988859
242,https://www.immoweb.be/en/classified/house/for-sale/herne/1540/20375437,20375437,HERNE,1540,475000,HOUSE,HOUSE,3,228.0,0.0,0,30.0,0.0,4.0,0,592.0,INSTALLED,AS_NEW,FOR_SALE,EDINGSESTEENWEG,4.0283589,50.7184026
243,https://www.immoweb.be/en/classified/country-cottage/for-sale/herne/1540/20357376,20357376,Herne,1540,984500,HOUSE,COUNTRY_COTTAGE,5,475.0,0.0,0,45.0,0.0,0.0,1,1117.0,UNKNOWN,AS_NEW,FOR_SALE,,,
244,https://www.immoweb.be/en/classified/house/for-sale/kortenaken/3472/20155181,20155181,Kortenaken,3472,229000,HOUSE,HOUSE,3,134.0,0.0,0,20.0,905.0,4.0,1,905.0,UNKNOWN,UNKNOWN,FOR_SALE,Wittebos,5.0047625,50.9011405
245,https://www.immoweb.be/en/classified/castle/for-sale/kersbeek-miskom/3472/20339462,20339462,Kersbeek-Miskom,3472,3000000,HOUSE,CASTLE,9,2000.0,1.0,0,45.0,0.0,0.0,0,46000.0,INSTALLED,JUST_RENOVATED,FOR_SALE,,,
246,https://www.immoweb.be/en/classified/house/for-sale/herne/1540/20089205,20089205,Herne,1540,376579,HOUSE,HOUSE,3,110.0,0.0,0,20.0,30.0,2.0,0,90.0,HYPER_EQUIPPED,AS_NEW,FOR_SALE,Stationsstraat,4.0203878,50.72632910000001
247,https://www.immoweb.be/en/classified/villa/for-sale/pellenberg/3212/20132261,20132261,Pellenberg,3212,695000,HOUSE,VILLA,4,205.0,0.0,0,12.0,1000.0,4.0,1,1127.0,INSTALLED,GOOD,FOR_SALE,Langelostraat,4.7636291,50.87687529999999
248,https://www.immoweb.be/en/classified/house/for-sale/scherpenheuvel-zichem-messelbroek/3272/20366983,20366983,Scherpenheuvel-Zichem (Messelbroek),3272,320000,HOUSE,HOUSE,3,134.0,0.0,0,20.0,0.0,4.0,1,4460.0,UNKNOWN,UNKNOWN,FOR_SALE,Brielstraat,4.9166478,50.9890635
249,https://www.immoweb.be/en/classified/house/for-sale/welle-denderleeuw/9473/20393551,20393551,Welle (Denderleeuw),9473,225000,HOUSE,HOUSE,5,177.0,0.0,0,48.0,0.0,2.0,1,518.0,UNKNOWN,UNKNOWN,FOR_SALE,Kerkstraat,4.043743399999999,50.8969172
250,https://www.immoweb.be/en/classified/apartment-block/for-sale/borsbeek/2150/20043870,20043870,BORSBEEK,2150,649900,HOUSE,APARTMENT_BLOCK,3,230.0,0.0,0,30.0,110.0,2.0,0,206.0,INSTALLED,JUST_RENOVATED,FOR_SALE,Adrinkhovenlaan,4.4824807,51.20118420000001
251,https://www.immoweb.be/en/classified/house/for-sale/herfelingen/1540/20183905,20183905,Herfelingen,1540,374000,HOUSE,HOUSE,4,346.0,0.0,0,40.0,0.0,0.0,0,1428.0,UNKNOWN,UNKNOWN,FOR_SALE,Steenweg Asse,4.1038568,50.7527615
252,https://www.immoweb.be/en/classified/house/for-sale/weelde/2381/20185381,20185381,Weelde,2381,369000,HOUSE,HOUSE,4,202.0,0.0,0,25.0,0.0,4.0,0,800.0,SEMI_EQUIPPED,UNKNOWN,FOR_SALE,Elzenstraat,4.9993175,51.4064285
253,https://www.immoweb.be/en/classified/villa/for-sale/scherpenheuvel-zichem/3272/20186951,20186951,Scherpenheuvel-Zichem,3272,460000,HOUSE,VILLA,3,210.0,0.0,0,30.0,1500.0,4.0,1,1511.0,INSTALLED,AS_NEW,FOR_SALE,Pannestraat,4.937414400000001,50.9917694
254,https://www.immoweb.be/en/classified/apartment/for-sale/welle/9473/20369063,20369063,Welle,9473,245000,APARTMENT,APARTMENT,2,98.0,0.0,0,2.0,0.0,4.0,1,0.0,INSTALLED,GOOD,FOR_SALE,Vissersstraat,4.0486013,50.8988859
255,https://www.immoweb.be/en/classified/house/for-sale/ravels-weelde/2381/20331336,20331336,Ravels Weelde,2381,795000,HOUSE,HOUSE,3,243.0,0.0,1,40.0,1900.0,4.0,0,2100.0,UNKNOWN,UNKNOWN,FOR_SALE,Huzenblek,4.9396245,51.39630769999999
256,https://www.immoweb.be/en/classified/exceptional-property/for-sale/herne/1540/11339663,11339663,Herne,1540,750000,HOUSE,EXCEPTIONAL_PROPERTY,4,308.0,0.0,1,40.0,6900.0,4.0,1,7090.0,SEMI_EQUIPPED,GOOD,FOR_SALE,Boesmolenstraat,4.0235237,50.7338874
257,https://www.immoweb.be/en/classified/house/for-sale/kersbeek-miskom/3472/11295009,11295009,Kersbeek-Miskom,3472,275000,HOUSE,HOUSE,5,210.0,0.0,0,26.0,0.0,0.0,0,980.0,SEMI_EQUIPPED,TO_RENOVATE,FOR_SALE,Kersbeek-Dorp,4.994032799999999,50.8897905
258,https://www.immoweb.be/en/classified/apartment-block/for-sale/borsbeek/2150/20371944,20371944,BORSBEEK,2150,385000,HOUSE,APARTMENT_BLOCK,4,175.0,0.0,0,22.5,125.0,3.0,0,270.0,SEMI_EQUIPPED,TO_RENOVATE,FOR_SALE,Wenigerstraat,4.4782682,51.1978722
259,https://www.immoweb.be/en/classified/house/for-sale/borsbeek/2150/20360070,20360070,BORSBEEK,2150,495000,HOUSE,HOUSE,3,130.0,0.0,0,20.0,0.0,4.0,0,962.0,INSTALLED,GOOD,FOR_SALE,Wenigerstraat,4.4798592,51.1981555
260,https://www.immoweb.be/en/classified/apartment/for-sale/welle/9473/20360133,20360133,Welle,9473,210000,APARTMENT,APARTMENT,1,59.0,0.0,0,11.0,0.0,0.0,0,0.0,INSTALLED,GOOD,FOR_SALE,Moortelveld,4.0420396,50.9014906
261,https://www.immoweb.be/en/classified/apartment/for-sale/denderleeuw-welle/9473/20364136,20364136,Denderleeuw Welle,9473,199000,APARTMENT,APARTMENT,2,88.0,0.0,0,11.0,0.0,2.0,0,0.0,INSTALLED,GOOD,FOR_SALE,Herstraat,4.0486013,50.8988859
262,https://www.immoweb.be/en/classified/farmhouse/for-sale/kortenaken/3472/20392851,20392851,Kortenaken,3472,300000,HOUSE,FARMHOUSE,9,1216.0,0.0,0,1.0,1216.0,4.0,1,1216.0,UNKNOWN,TO_RENOVATE,FOR_SALE,Kerkstraat,5.0125154,50.89535919999999
263,https://www.immoweb.be/en/classified/house/for-sale/denderleeuw-welle/9473/20371937,20371937,Denderleeuw Welle,9473,260000,HOUSE,HOUSE,1,131.0,0.0,0,20.0,0.0,3.0,0,1350.0,UNKNOWN,TO_RENOVATE,FOR_SALE,Wildebeekstraat,4.0372939,50.8879221
264,https://www.immoweb.be/en/classified/bungalow/for-sale/schelle/2627/20065497,20065497,Schelle,2627,409000,HOUSE,BUNGALOW,1,129.0,0.0,1,20.0,918.0,4.0,0,1000.0,INSTALLED,GOOD,FOR_SALE,Koekoekstraat,4.3657783,51.120898
265,https://www.immoweb.be/en/classified/apartment/for-sale/borsbeek/2150/20364575,20364575,BORSBEEK,2150,285000,APARTMENT,APARTMENT,3,81.0,0.0,0,10.0,0.0,2.0,0,0.0,INSTALLED,JUST_RENOVATED,FOR_SALE,Groenhofstraat,4.4881743,51.1971152
266,https://www.immoweb.be/en/classified/house/for-sale/scherpenheuvel-zichem/3272/20345566,20345566,Scherpenheuvel-Zichem,3272,235000,HOUSE,HOUSE,3,225.0,0.0,0,28.0,0.0,3.0,1,3965.0,NOT_INSTALLED,TO_RENOVATE,FOR_SALE,Voort,4.9585348,51.01903
267,https://www.immoweb.be/en/classified/apartment/for-sale/sint-genesius-rode/1640/20398361,20398361,Sint-Genesius-Rode,1640,539000,APARTMENT,APARTMENT,3,192.0,0.0,0,25.0,0.0,0.0,0,0.0,UNKNOWN,UNKNOWN,FOR_SALE,Kerkstraat,4.349389599999999,50.7442291
268,https://www.immoweb.be/en/classified/house/for-sale/testelt/3272/20388634,20388634,TESTELT,3272,272000,HOUSE,HOUSE,3,139.0,0.0,1,20.0,379.0,0.0,0,525.0,SEMI_EQUIPPED,TO_RENOVATE,FOR_SALE,Hoeve,4.9507587,51.0245585
269,https://www.immoweb.be/en/classified/house/for-sale/herne/1540/11369702,11369702,Herne,1540,430000,HOUSE,HOUSE,3,116.0,0.0,0,20.0,70.0,2.0,0,135.0,HYPER_EQUIPPED,AS_NEW,FOR_SALE,Geraardsbergsestraat,3.9896112,50.7072051
270,https://www.immoweb.be/en/classified/house/for-sale/herne/1540/20089204,20089204,Herne,1540,447854,HOUSE,HOUSE,3,141.0,0.0,0,20.0,50.0,2.0,0,141.0,HYPER_EQUIPPED,AS_NEW,FOR_SALE,Stationsstraat,4.0203878,50.72632910000001
271,https://www.immoweb.be/en/classified/house/for-sale/lubbeek-pellenberg/3212/20116505,20116505,Lubbeek Pellenberg,3212,659666,HOUSE,HOUSE,3,190.0,0.0,0,30.0,0.0,3.0,0,662.0,HYPER_EQUIPPED,UNKNOWN,FOR_SALE,Plein,4.7944074,50.886159
272,https://www.immoweb.be/en/classified/manor-house/for-sale/pellenberg/3212/20369491,20369491,PELLENBERG,3212,945000,HOUSE,MANOR_HOUSE,5,416.0,0.0,0,44.0,0.0,4.0,0,2995.0,INSTALLED,UNKNOWN,FOR_SALE,Kleine Ganzendries,4.7940573,50.8683932
273,https://www.immoweb.be/en/classified/house/for-sale/pellenberg/3212/10749562,10749562,Pellenberg,3212,290000,HOUSE,HOUSE,3,125.0,0.0,0,20.0,0.0,0.0,0,639.0,INSTALLED,TO_RENOVATE,FOR_SALE,Kapelstraat,4.7951302,50.8723624
274,https://www.immoweb.be/en/classified/house/for-sale/welle/9473/20348931,20348931,Welle,9473,295000,HOUSE,HOUSE,5,171.0,0.0,0,25.0,0.0,2.0,1,168.0,HYPER_EQUIPPED,TO_BE_DONE_UP,FOR_SALE,Zandplaatstraat,4.077863,50.8782429
275,https://www.immoweb.be/en/classified/villa/for-sale/scherpenheuvel-zichem/3272/20154940,20154940,Scherpenheuvel-Zichem,3272,998000,HOUSE,VILLA,5,463.0,0.0,1,1.0,1.0,4.0,1,3660.0,UNKNOWN,AS_NEW,FOR_SALE,Molijkestraat,4.9286059,50.991988
276,https://www.immoweb.be/en/classified/house/for-sale/lubbeek-pellenberg/3212/20294930,20294930,Lubbeek Pellenberg,3212,339000,HOUSE,HOUSE,2,120.0,0.0,0,18.0,100.0,3.0,0,234.0,INSTALLED,GOOD,FOR_SALE,langelostraat,4.7664599,50.8801119
277,https://www.immoweb.be/en/classified/house/for-sale/lubbeek-pellenberg/3212/20116506,20116506,Lubbeek Pellenberg,3212,658666,HOUSE,HOUSE,3,190.0,0.0,0,30.0,0.0,3.0,0,741.0,HYPER_EQUIPPED,UNKNOWN,FOR_SALE,Plein,4.7944074,50.886159
278,https://www.immoweb.be/en/classified/country-cottage/for-sale/herne/1540/20201071,20201071,Herne,1540,695000,HOUSE,COUNTRY_COTTAGE,4,300.0,0.0,1,36.0,0.0,4.0,0,2955.0,UNKNOWN,GOOD,FOR_SALE,Langestraat,4.0583275,50.7552026
279,https://www.immoweb.be/en/classified/house/for-sale/scherpenheuvel-zichem/3272/11362322,11362322,Scherpenheuvel-Zichem,3272,395000,HOUSE,HOUSE,3,150.0,0.0,0,1.0,1.0,3.0,1,537.0,INSTALLED,AS_NEW,FOR_SALE,Maasstraat,4.926495399999999,50.9881007
280,https://www.immoweb.be/en/classified/house/for-sale/sinaai/9112/20163848,20163848,SINAAI,9112,437000,HOUSE,HOUSE,4,209.0,0.0,0,25.0,0.0,4.0,0,600.0,INSTALLED,GOOD,FOR_SALE,Wijnveld,4.0597656,51.1455811
281,https://www.immoweb.be/en/classified/house/for-sale/sinaai-waas/9112/20344458,20344458,Sinaai-Waas,9112,350000,HOUSE,HOUSE,2,169.0,0.0,1,22.0,0.0,4.0,0,650.0,SEMI_EQUIPPED,TO_RENOVATE,FOR_SALE,Keizerstraat,4.0014711,51.1557497
282,https://www.immoweb.be/en/classified/apartment/for-sale/sinaai-sint-niklaas/9112/20348581,20348581,Sinaai (Sint-Niklaas),9112,317000,APARTMENT,APARTMENT,2,87.0,0.0,0,9.0,0.0,3.0,1,0.0,UNKNOWN,GOOD,FOR_SALE,Hulstbaan,4.0421439,51.1532875
283,https://www.immoweb.be/en/classified/house/for-sale/sinaai-sint-niklaas/9112/20348546,20348546,Sinaai (Sint-Niklaas),9112,416500,HOUSE,HOUSE,3,140.0,0.0,0,11.0,22.0,3.0,1,103.0,UNKNOWN,GOOD,FOR_SALE,Hulstbaan,4.0421439,51.1532875
284,https://www.immoweb.be/en/classified/house/for-sale/geetbets/3450/20265617,20265617,Geetbets,3450,365000,HOUSE,HOUSE,3,165.0,0.0,0,22.0,0.0,3.0,1,500.0,UNKNOWN,UNKNOWN,FOR_SALE,Glabbeekstraat,5.1048877,50.8804879
285,https://www.immoweb.be/en/classified/house/for-sale/geetbets/3450/20290336,20290336,Geetbets,3450,445000,HOUSE,HOUSE,4,209.0,0.0,0,25.0,0.0,3.0,1,3503.0,HYPER_EQUIPPED,GOOD,FOR_SALE,Halstraat,5.0797462,50.8796231
286,https://www.immoweb.be/en/classified/apartment/for-sale/sinaai-sint-niklaas/9112/20348548,20348548,Sinaai (Sint-Niklaas),9112,260000,APARTMENT,APARTMENT,1,61.0,0.0,0,19.0,50.0,2.0,1,0.0,UNKNOWN,GOOD,FOR_SALE,Hulstbaan,4.0421439,51.1532875
287,https://www.immoweb.be/en/classified/exceptional-property/for-sale/raeren/4730/11491565,11491565,Raeren,4730,900000,HOUSE,EXCEPTIONAL_PROPERTY,0,1300.0,0.0,0,75.0,0.0,0.0,1,1546.0,UNKNOWN,GOOD,FOR_SALE,Kirchstraße,6.0702302,50.7055241
288,https://www.immoweb.be/en/classified/house/for-sale/geetbets/3450/20307704,20307704,Geetbets,3450,150000,HOUSE,HOUSE,3,158.0,0.0,0,21.0,0.0,4.0,0,625.0,UNKNOWN,UNKNOWN,FOR_SALE,Kolkstraat,5.1032306,50.8992897
289,https://www.immoweb.be/en/classified/house/for-sale/geetbets/3450/20244863,20244863,GEETBETS,3450,169000,HOUSE,HOUSE,3,140.0,0.0,0,20.0,0.0,3.0,0,350.0,SEMI_EQUIPPED,TO_RENOVATE,FOR_SALE,Grote Baan,5.1645781,50.88513380000001
290,https://www.immoweb.be/en/classified/villa/for-sale/gent/9031/20398330,20398330,Gent,9031,585000,HOUSE,VILLA,8,552.0,0.0,0,50.0,776.0,4.0,1,960.0,INSTALLED,TO_RENOVATE,FOR_SALE,Deinse Horsweg,3.6522044,51.04591019999999
291,https://www.immoweb.be/en/classified/apartment/for-sale/aalst/9308/20267501,20267501,Aalst,9308,305000,APARTMENT,APARTMENT,2,80.0,0.0,0,15.0,0.0,2.0,1,0.0,HYPER_EQUIPPED,AS_NEW,FOR_SALE,Steenweg Naar Oudegem,4.046526,50.9796312
292,https://www.immoweb.be/en/classified/villa/for-sale/aalst/9308/20356377,20356377,Aalst,9308,830000,HOUSE,VILLA,6,382.0,0.0,0,215.0,4162.0,4.0,1,5055.0,HYPER_EQUIPPED,GOOD,FOR_SALE,Steenweg naar Oudegem,4.0475047,50.9813772
293,https://www.immoweb.be/en/classified/bungalow/for-sale/aalst-gijzegem/9308/11415874,11415874,Aalst Gijzegem,9308,525000,HOUSE,BUNGALOW,4,206.0,0.0,0,25.0,0.0,4.0,1,877.0,INSTALLED,GOOD,FOR_SALE,Mimosastraat,4.0501658,50.9902137
294,https://www.immoweb.be/en/classified/house/for-sale/geetbets/3450/20364087,20364087,Geetbets,3450,225000,HOUSE,HOUSE,3,167.0,0.0,0,22.0,0.0,4.0,1,1500.0,UNKNOWN,UNKNOWN,FOR_SALE,Kwadestraat,5.1161105,50.9063643
295,https://www.immoweb.be/en/classified/farmhouse/for-sale/baarle-hertog/2387/20134449,20134449,Baarle-Hertog,2387,875000,HOUSE,FARMHOUSE,4,205.0,0.0,1,20.0,100.0,4.0,1,25000.0,INSTALLED,AS_NEW,FOR_SALE,Zondereigen,4.8834984,51.4080593
296,https://www.immoweb.be/en/classified/house/for-sale/aalst-hofstade/9308/20389635,20389635,Aalst Hofstade,9308,218500,HOUSE,HOUSE,2,123.0,0.0,0,20.0,0.0,2.0,0,232.0,INSTALLED,GOOD,FOR_SALE,Steenweg op Aalst,4.0316176,50.9601959
297,https://www.immoweb.be/en/classified/house/for-sale/sinaai-waas/9112/20369972,20369972,Sinaai-Waas,9112,417000,HOUSE,HOUSE,3,189.0,0.0,0,24.0,200.0,3.0,0,648.0,INSTALLED,GOOD,FOR_SALE,Vleeshouwersstraat,4.0478065,51.1600569
298,https://www.immoweb.be/en/classified/house/for-sale/sinaai-waas/9112/20161519,20161519,Sinaai-Waas,9112,409000,HOUSE,HOUSE,2,176.0,0.0,0,20.0,400.0,4.0,0,780.0,UNKNOWN,AS_NEW,FOR_SALE,Hulstbaan,4.0330107,51.1445
299,https://www.immoweb.be/en/classified/ground-floor/for-sale/baarle-hertog/2387/20365467,20365467,BAARLE-HERTOG,2387,250000,APARTMENT,GROUND_FLOOR,4,255.0,0.0,0,30.0,225.0,3.0,0,0.0,SEMI_EQUIPPED,TO_RENOVATE,FOR_SALE,Zondereigen,4.8914227,51.4038044
300,https://www.immoweb.be/en/classified/mixed-use-building/for-sale/geetbets/3450/20338192,20338192,Geetbets,3450,290000,HOUSE,MIXED_USE_BUILDING,4,175.0,0.0,0,22.0,37.0,2.0,1,280.0,HYPER_EQUIPPED,GOOD,FOR_SALE,Dorpsstraat,5.1155833,50.8897369
301,https://www.immoweb.be/en/classified/house/for-sale/geetbets/3450/20355943,20355943,Geetbets,3450,350000,HOUSE,HOUSE,3,166.0,0.0,0,22.0,0.0,3.0,1,308.0,HYPER_EQUIPPED,UNKNOWN,FOR_SALE,Kerselant,5.1119229,50.8929458
302,https://www.immoweb.be/en/classified/house/for-sale/sinaai-sint-niklaas/9112/20348549,20348549,Sinaai (Sint-Niklaas),9112,514500,HOUSE,HOUSE,3,152.0,0.0,0,19.0,99.0,3.0,1,207.0,UNKNOWN,GOOD,FOR_SALE,Hulstbaan,4.0421439,51.1532875
303,https://www.immoweb.be/en/classified/house/for-sale/biesme-sous-thuin/6531/11257757,11257757,Biesme-sous-thuin,6531,260000,HOUSE,HOUSE,5,169.0,0.0,0,73.0,158.0,3.0,0,242.0,HYPER_EQUIPPED,GOOD,FOR_SALE,Rue de biesme,4.3132794,50.3196671
304,https://www.immoweb.be/en/classified/house/for-sale/baarle-hertog/2387/20017503,20017503,Baarle-Hertog,2387,376096,HOUSE,HOUSE,3,150.0,0.0,0,20.0,0.0,3.0,1,344.0,HYPER_EQUIPPED,GOOD,FOR_SALE,Gierlestraat,4.933705499999999,51.4346077
305,https://www.immoweb.be/en/classified/villa/for-sale/baarle-hertog/2387/20353332,20353332,Baarle-Hertog,2387,915000,HOUSE,VILLA,5,418.0,0.0,0,1.0,1.0,4.0,1,850.0,UNKNOWN,UNKNOWN,FOR_SALE,Tommelshof,4.92922,51.4340152
306,https://www.immoweb.be/en/classified/house/for-sale/drongen/9031/20200200,20200200,Drongen,9031,425000,HOUSE,HOUSE,3,120.0,0.0,0,16.0,400.0,3.0,1,793.0,UNKNOWN,UNKNOWN,FOR_SALE,Luchterenkerkweg,3.638937,51.0625875
307,https://www.immoweb.be/en/classified/house/for-sale/geetbets/3450/20394270,20394270,Geetbets,3450,325000,HOUSE,HOUSE,3,151.0,0.0,0,20.0,0.0,4.0,1,1076.0,UNKNOWN,UNKNOWN,FOR_SALE,Glabbeekstraat,5.0925003,50.8709108
308,https://www.immoweb.be/en/classified/villa/for-sale/engis/4480/11434110,11434110,Engis,4480,400000,HOUSE,VILLA,4,200.0,0.0,0,40.0,1400.0,4.0,1,2020.0,INSTALLED,GOOD,FOR_SALE,Sentier du Bois d'Horion,5.3906611,50.5811982
309,https://www.immoweb.be/en/classified/house/for-sale/baarle-hertog/2387/11237449,11237449,Baarle-Hertog,2387,376096,HOUSE,HOUSE,3,150.0,0.0,0,20.0,0.0,3.0,1,344.0,UNKNOWN,GOOD,FOR_SALE,Gierlestraat,4.933705499999999,51.4346077
310,https://www.immoweb.be/en/classified/house/for-sale/hauset/4730/10459312,10459312,Hauset,4730,399254,HOUSE,HOUSE,4,205.0,0.0,0,25.0,0.0,3.0,0,325.0,UNKNOWN,AS_NEW,FOR_SALE,Wesselbend,6.090356,50.7093444
311,https://www.immoweb.be/en/classified/house/for-sale/gent/9031/20289595,20289595,Gent,9031,279000,HOUSE,HOUSE,3,150.0,0.0,0,20.0,122.0,2.0,0,221.0,UNKNOWN,GOOD,FOR_SALE,Baarledorpstraat,3.617409299999999,51.0367749
312,https://www.immoweb.be/en/classified/house/for-sale/geetbets/3450/20305951,20305951,Geetbets,3450,275000,HOUSE,HOUSE,2,155.0,0.0,0,21.0,0.0,4.0,1,2737.0,UNKNOWN,UNKNOWN,FOR_SALE,Grote Steenweg,5.1740506,50.9036244
313,https://www.immoweb.be/en/classified/house/for-sale/geetbets/3450/20290335,20290335,Geetbets,3450,553000,HOUSE,HOUSE,4,209.0,0.0,0,25.0,0.0,3.0,1,23503.0,HYPER_EQUIPPED,GOOD,FOR_SALE,Halstraat,5.0797462,50.8796231
314,https://www.immoweb.be/en/classified/apartment/for-sale/raeren/4730/20212554,20212554,Raeren,4730,175000,APARTMENT,APARTMENT,1,85.0,0.0,0,10.0,0.0,0.0,1,0.0,INSTALLED,GOOD,FOR_SALE,Hergenrather Straße,6.0678917,50.7111135
315,https://www.immoweb.be/en/classified/house/for-sale/hauset/4730/10646980,10646980,Hauset,4730,395318,HOUSE,HOUSE,4,205.0,0.0,0,25.0,0.0,2.0,0,283.0,UNKNOWN,AS_NEW,FOR_SALE,An der Aktienstr.,6.0902424,50.7096101
316,https://www.immoweb.be/en/classified/house/for-sale/hodeige/4351/11315455,11315455,HODEIGE,4351,110000,HOUSE,HOUSE,3,146.0,0.0,0,20.0,0.0,4.0,0,20.0,NOT_INSTALLED,UNKNOWN,FOR_SALE,Rue de Lens-sur-Geer,5.342050899999999,50.6969293
317,https://www.immoweb.be/en/classified/house/for-sale/gent-drongen/9031/20377184,20377184,Gent Drongen,9031,345000,HOUSE,HOUSE,3,140.0,0.0,0,20.0,0.0,2.0,1,111.0,INSTALLED,TO_BE_DONE_UP,FOR_SALE,Domien Ingelsstraat,3.6660556,51.0509985
318,https://www.immoweb.be/en/classified/house/for-sale/sinaai/9112/20262015,20262015,SINAAI,9112,625000,HOUSE,HOUSE,5,280.0,0.0,0,35.0,125.0,3.0,0,424.0,INSTALLED,GOOD,FOR_SALE,Hulstbaan,4.0348853,51.1459913
319,https://www.immoweb.be/en/classified/house/for-sale/engis/4480/20202056,20202056,ENGIS,4480,210000,HOUSE,HOUSE,4,176.0,0.0,0,15.0,244.0,2.0,0,322.0,SEMI_EQUIPPED,GOOD,FOR_SALE,Rue Albert 1er,5.4059439,50.582807
320,https://www.immoweb.be/en/classified/house/for-sale/aalst/9308/20222371,20222371,Aalst,9308,258000,HOUSE,HOUSE,3,155.0,0.0,0,12.0,50.0,0.0,0,177.0,UNKNOWN,GOOD,FOR_SALE,Rozenstraat,4.0285126,50.9541003
321,https://www.immoweb.be/en/classified/house/for-sale/engis/4480/20371428,20371428,Engis,4480,260000,HOUSE,HOUSE,4,152.0,0.0,0,27.0,559.0,4.0,1,696.0,INSTALLED,GOOD,FOR_SALE,Rue Reine Astrid,5.400970099999999,50.5867707
322,https://www.immoweb.be/en/classified/house/for-sale/engis/4480/20227676,20227676,Engis,4480,199000,HOUSE,HOUSE,4,127.0,0.0,0,108.0,287.0,3.0,1,468.0,INSTALLED,GOOD,FOR_SALE,Rue Neuve-Voie,5.3989071,50.58180609999999
323,https://www.immoweb.be/en/classified/ground-floor/for-sale/raeren/4730/10464655,10464655,Raeren,4730,299000,APARTMENT,GROUND_FLOOR,2,140.0,0.0,0,20.0,0.0,0.0,0,0.0,INSTALLED,GOOD,FOR_SALE,Burgstrasse,6.1137302,50.6790481
324,https://www.immoweb.be/en/classified/house/for-sale/engis/4480/11402272,11402272,ENGIS,4480,115000,HOUSE,HOUSE,3,102.0,0.0,0,13.0,90.0,2.0,0,143.0,NOT_INSTALLED,TO_RENOVATE,FOR_SALE,Rue du Maréchal Foch,5.403315,50.5646275
325,https://www.immoweb.be/en/classified/house/for-sale/geetbets/3450/11213726,11213726,Geetbets,3450,339200,HOUSE,HOUSE,3,202.0,0.0,0,25.0,0.0,4.0,1,516.0,UNKNOWN,UNKNOWN,FOR_SALE,Tuinwijkstraat,5.110124,50.8967687
326,https://www.immoweb.be/en/classified/house/for-sale/hofstade/9308/20379900,20379900,HOFSTADE,9308,1200000,HOUSE,HOUSE,5,600.0,0.0,0,90.0,0.0,4.0,0,0.0,HYPER_EQUIPPED,UNKNOWN,FOR_SALE,Molenkouterstraat,4.0298007,50.9564264
327,https://www.immoweb.be/en/classified/house/for-sale/geetbets/3450/20393603,20393603,GEETBETS,3450,365000,HOUSE,HOUSE,3,130.0,0.0,0,26.0,0.0,4.0,0,605.0,INSTALLED,UNKNOWN,FOR_SALE,Borgloonstraat,5.122933800000001,50.9046668
328,https://www.immoweb.be/en/classified/villa/for-sale/soumagne/4632/20058154,20058154,SOUMAGNE,4632,800000,HOUSE,VILLA,3,207.0,0.0,0,28.0,2386.0,4.0,1,2776.0,INSTALLED,AS_NEW,FOR_SALE,,,
329,https://www.immoweb.be/en/classified/house/for-sale/geetbets/3450/20347822,20347822,GEETBETS,3450,230000,HOUSE,HOUSE,3,155.0,0.0,0,21.0,0.0,4.0,0,1206.0,INSTALLED,GOOD,FOR_SALE,Glabbeekstraat,5.0920763,50.87776840000001
330,https://www.immoweb.be/en/classified/bungalow/for-sale/petergensfeld/4730/10938874,10938874,PETERGENSFELD,4730,425000,HOUSE,BUNGALOW,6,362.0,0.0,1,55.0,3028.0,4.0,0,2244.0,INSTALLED,JUST_RENOVATED,FOR_SALE,Binsenvenn,6.1742308,50.65358630000001
331,https://www.immoweb.be/en/classified/house/for-sale/hauset/4730/10664277,10664277,Hauset,4730,440797,HOUSE,HOUSE,4,205.0,0.0,0,25.0,0.0,3.0,0,478.0,UNKNOWN,AS_NEW,FOR_SALE,An der Aktienstr.,6.090528099999999,50.7096264
332,https://www.immoweb.be/en/classified/apartment/for-sale/drongen/9031/20391998,20391998,Drongen,9031,349000,APARTMENT,APARTMENT,2,105.0,0.0,0,14.0,0.0,0.0,1,0.0,INSTALLED,GOOD,FOR_SALE,Mariakerksesteenweg,3.6603316,51.0567575
333,https://www.immoweb.be/en/classified/house/for-sale/drongen/9031/20376865,20376865,Drongen,9031,419000,HOUSE,HOUSE,3,139.0,0.0,0,20.0,0.0,3.0,0,523.0,UNKNOWN,GOOD,FOR_SALE,Akkerwindelaan,3.6493483,51.0564229
334,https://www.immoweb.be/en/classified/house/for-sale/hauset/4730/10475998,10475998,Hauset,4730,370000,HOUSE,HOUSE,5,229.0,0.0,0,30.0,0.0,3.0,0,288.0,UNKNOWN,UNKNOWN,FOR_SALE,Aachener Strasse,6.0835268,50.6925806
335,https://www.immoweb.be/en/classified/house/for-sale/engis/4480/20315728,20315728,Engis,4480,175000,HOUSE,HOUSE,3,133.0,0.0,0,27.0,25.0,2.0,1,150.0,INSTALLED,GOOD,FOR_SALE,Rue Thier Ardent,5.405310399999999,50.5875
336,https://www.immoweb.be/en/classified/house/for-sale/engis/4480/20347117,20347117,Engis,4480,199500,HOUSE,HOUSE,2,120.0,0.0,0,18.0,0.0,4.0,1,420.0,SEMI_EQUIPPED,TO_BE_DONE_UP,FOR_SALE,Route d'Ehein,5.3975557,50.572285
337,https://www.immoweb.be/en/classified/house/for-sale/hofstade/9308/20333010,20333010,HOFSTADE,9308,169500,HOUSE,HOUSE,3,127.0,0.0,0,20.0,37.0,0.0,0,109.0,SEMI_EQUIPPED,TO_RENOVATE,FOR_SALE,Konijnenberg,4.0352802,50.9560398
338,https://www.immoweb.be/en/classified/villa/for-sale/aalst/9308/20356376,20356376,Aalst,9308,830000,HOUSE,VILLA,6,382.0,0.0,0,215.0,4162.0,4.0,1,5055.0,HYPER_EQUIPPED,GOOD,FOR_SALE,Steenweg naar Oudegem,4.0475047,50.9813772
339,https://www.immoweb.be/en/classified/house/for-sale/cerexhe-heuseux/4632/11399277,11399277,Cerexhe-heuseux,4632,345000,HOUSE,HOUSE,3,118.0,0.0,0,22.0,325.0,3.0,0,440.0,UNKNOWN,AS_NEW,FOR_SALE,Rue Joly,5.7195854,50.6568234
340,https://www.immoweb.be/en/classified/house/for-sale/gent-drongen/9031/20376624,20376624,Gent Drongen,9031,1050000,HOUSE,HOUSE,3,408.0,0.0,0,44.0,0.0,4.0,1,5018.0,HYPER_EQUIPPED,TO_BE_DONE_UP,FOR_SALE,Noordhoutstraat,3.6110813,51.04015949999999
341,https://www.immoweb.be/en/classified/apartment/for-sale/engis/4480/20269653,20269653,ENGIS,4480,119000,APARTMENT,APARTMENT,2,80.0,0.0,0,10.0,75.0,3.0,0,0.0,INSTALLED,GOOD,FOR_SALE,Rue du Maréchal Foch,5.403315,50.5646275
342,https://www.immoweb.be/en/classified/house/for-sale/aalst-hofstade/9308/20395777,20395777,Aalst Hofstade,9308,329000,HOUSE,HOUSE,3,197.0,0.0,0,25.0,110.0,3.0,0,434.0,INSTALLED,TO_BE_DONE_UP,FOR_SALE,Kortenhoekstraat,4.0203956,50.9637362
343,https://www.immoweb.be/en/classified/country-cottage/for-sale/clermont-sous-huy/4480/20202992,20202992,CLERMONT-SOUS-HUY,4480,269000,HOUSE,COUNTRY_COTTAGE,4,162.0,0.0,0,50.0,1850.0,0.0,0,2390.0,SEMI_EQUIPPED,GOOD,FOR_SALE,Aux Houx,5.4023404,50.5505429
344,https://www.immoweb.be/en/classified/house/for-sale/raeren/4730/20231668,20231668,Raeren,4730,100000,HOUSE,HOUSE,3,160.0,0.0,0,22.0,0.0,4.0,0,0.0,UNKNOWN,TO_RENOVATE,FOR_SALE,Rottstraße,6.1158779,50.6664052
345,https://www.immoweb.be/en/classified/apartment/for-sale/hofstade/9308/20265644,20265644,HOFSTADE,9308,239000,APARTMENT,APARTMENT,2,92.0,0.0,0,12.0,0.0,2.0,0,0.0,INSTALLED,GOOD,FOR_SALE,Steenweg op Aalst,4.0314231,50.9522172
346,https://www.immoweb.be/en/classified/apartment-block/for-sale/engis/4480/20201032,20201032,ENGIS,4480,219000,HOUSE,APARTMENT_BLOCK,3,178.0,0.0,0,23.0,0.0,2.0,0,120.0,SEMI_EQUIPPED,GOOD,FOR_SALE,Rue Joseph Wauters,5.4011477,50.5801166
347,https://www.immoweb.be/en/classified/country-cottage/for-sale/gent-drongen/9031/20313408,20313408,Gent Drongen,9031,950000,HOUSE,COUNTRY_COTTAGE,4,220.0,0.0,0,80.0,2000.0,4.0,0,14400.0,INSTALLED,AS_NEW,FOR_SALE,Kattegaver,3.625551599999999,51.0582276
348,https://www.immoweb.be/en/classified/house/for-sale/sinaai-sint-niklaas/9112/20074228,20074228,Sinaai (Sint-Niklaas),9112,416500,HOUSE,HOUSE,3,140.0,0.0,0,11.0,22.0,3.0,1,103.0,UNKNOWN,GOOD,FOR_SALE,Hulstbaan,4.0421439,51.1532875
349,https://www.immoweb.be/en/classified/house/for-sale/engis/4480/20305023,20305023,ENGIS,4480,155000,HOUSE,HOUSE,4,138.0,0.0,0,32.0,116.0,3.0,0,260.0,SEMI_EQUIPPED,TO_BE_DONE_UP,FOR_SALE,Rue Joseph Wauters,5.403175699999999,50.5806164
350,https://www.immoweb.be/en/classified/apartment/for-sale/engis/4480/20333898,20333898,Engis,4480,99000,APARTMENT,APARTMENT,1,55.0,0.0,0,10.0,0.0,2.0,1,0.0,INSTALLED,GOOD,FOR_SALE,Rue Reine Astrid,5.4043359,50.5825397
351,https://www.immoweb.be/en/classified/bungalow/for-sale/hauset/4730/20011224,20011224,HAUSET,4730,235000,HOUSE,BUNGALOW,2,108.0,0.0,0,15.0,0.0,4.0,0,931.0,INSTALLED,JUST_RENOVATED,FOR_SALE,Frepert,6.0821735,50.713047
352,https://www.immoweb.be/en/classified/farmhouse/for-sale/geetbets/3450/20300663,20300663,Geetbets,3450,185000,HOUSE,FARMHOUSE,4,205.0,0.0,0,25.0,0.0,4.0,0,13010.0,INSTALLED,UNKNOWN,FOR_SALE,Dennenbosstraat,5.0802773,50.8856522
353,https://www.immoweb.be/en/classified/apartment/for-sale/drongen/9031/20319137,20319137,DRONGEN,9031,340751,APARTMENT,APARTMENT,2,100.0,0.0,0,14.0,0.0,2.0,0,0.0,INSTALLED,UNKNOWN,FOR_SALE,Baarledorpstraat,3.619149,51.0371417
354,https://www.immoweb.be/en/classified/house/for-sale/engis/4480/20206441,20206441,ENGIS,4480,199000,HOUSE,HOUSE,4,131.0,0.0,0,45.0,136.0,3.0,0,376.0,INSTALLED,GOOD,FOR_SALE,Rue Reine Astrid,5.4026399,50.585339
355,https://www.immoweb.be/en/classified/house/for-sale/remicourt/4351/20190927,20190927,Remicourt,4351,335000,HOUSE,HOUSE,4,130.0,0.0,0,20.0,100.0,4.0,1,350.0,INSTALLED,JUST_RENOVATED,FOR_SALE,Ruelle de la Forie,5.339597599999999,50.6952709
356,https://www.immoweb.be/en/classified/house/for-sale/baarle-hertog/2387/20269818,20269818,Baarle-Hertog,2387,715000,HOUSE,HOUSE,4,320.0,0.0,0,40.0,0.0,4.0,0,844.0,HYPER_EQUIPPED,AS_NEW,FOR_SALE,Parallelweg,4.9278718,51.4353461
357,https://www.immoweb.be/en/classified/house/for-sale/cerexhe-heuseux/4632/20228851,20228851,Cérexhe-Heuseux,4632,169999,HOUSE,HOUSE,5,325.0,0.0,0,40.0,0.0,3.0,0,175.0,UNKNOWN,TO_RENOVATE,FOR_SALE,Rue Ways,5.7125773,50.6573679
358,https://www.immoweb.be/en/classified/house/for-sale/engis/4480/20393185,20393185,Engis,4480,289500,HOUSE,HOUSE,4,160.0,0.0,0,30.0,280.0,3.0,1,537.0,UNKNOWN,UNKNOWN,FOR_SALE,Cité des Rys,5.3635313,50.5594028
359,https://www.immoweb.be/en/classified/house/for-sale/geetbets/3450/20110583,20110583,Geetbets,3450,265000,HOUSE,HOUSE,0,299.0,0.0,0,34.0,81.0,4.0,0,1357.0,UNKNOWN,TO_RENOVATE,FOR_SALE,Hogenstraat,5.0766824,50.8814684
360,https://www.immoweb.be/en/classified/house/for-sale/clermont-sous-huy/4480/20391032,20391032,CLERMONT-SOUS-HUY,4480,285000,HOUSE,HOUSE,2,100.0,0.0,0,25.0,150.0,0.0,0,257.0,INSTALLED,UNKNOWN,FOR_SALE,Chaussée de Liège,5.3862849,50.5655585
361,https://www.immoweb.be/en/classified/house/for-sale/cerexhe-heuseux/4632/11399278,11399278,Cerexhe-heuseux,4632,366000,HOUSE,HOUSE,3,123.0,0.0,0,21.0,427.0,3.0,0,539.0,UNKNOWN,AS_NEW,FOR_SALE,Rue Joly,5.7169018,50.65542809999999
362,https://www.immoweb.be/en/classified/house/for-sale/drongen/9031/20139129,20139129,Drongen,9031,325000,HOUSE,HOUSE,3,132.0,0.0,0,20.0,0.0,0.0,0,441.0,SEMI_EQUIPPED,GOOD,FOR_SALE,Kloosterstraat,3.6162431,51.0397871
363,https://www.immoweb.be/en/classified/house/for-sale/la-louviere/7100/20280823,20280823,La Louvière,7100,268000,HOUSE,HOUSE,3,122.0,0.0,0,20.0,870.0,2.0,1,1158.0,SEMI_EQUIPPED,GOOD,FOR_SALE,Rue de la Poterie,4.2023621,50.4723288
364,https://www.immoweb.be/en/classified/house/for-sale/la-louviere-haine-saint-paul/7100/20395953,20395953,La Louvière Haine-Saint-Paul,7100,125000,HOUSE,HOUSE,3,126.0,0.0,0,20.0,0.0,2.0,1,226.0,NOT_INSTALLED,TO_RENOVATE,FOR_SALE,Chaussée de Mons,4.1959548,50.4580038
365,https://www.immoweb.be/en/classified/house/for-sale/la-louviere/7100/20393621,20393621,LA LOUVIÈRE,7100,190000,HOUSE,HOUSE,3,171.0,0.0,0,22.0,0.0,2.0,0,110.0,INSTALLED,GOOD,FOR_SALE,,,
366,https://www.immoweb.be/en/classified/house/for-sale/la-louviere-haine-st-pierre/7100/20025706,20025706,La Louvière/ Haine-st- Pierre,7100,279900,HOUSE,HOUSE,3,185.0,0.0,0,24.0,200.0,3.0,1,695.0,USA_INSTALLED,AS_NEW,FOR_SALE,Rue Jules Tison,4.1982536,50.4592098
367,https://www.immoweb.be/en/classified/house/for-sale/la-louviere/7100/20212196,20212196,La Louvière,7100,238000,HOUSE,HOUSE,3,154.0,0.0,0,30.0,80.0,2.0,1,261.0,HYPER_EQUIPPED,GOOD,FOR_SALE,Rue Henri Aubry,4.2202937,50.47725870000001
368,https://www.immoweb.be/en/classified/house/for-sale/la-louviere/7100/20387567,20387567,La Louvière,7100,280000,HOUSE,HOUSE,3,250.0,0.0,0,30.0,0.0,2.0,0,630.0,UNKNOWN,AS_NEW,FOR_SALE,Rue Ferdinand Gossuin,4.202234,50.457594
369,https://www.immoweb.be/en/classified/house/for-sale/la-louviere/7100/20387566,20387566,La Louvière,7100,320000,HOUSE,HOUSE,3,250.0,0.0,0,30.0,0.0,2.0,0,630.0,UNKNOWN,AS_NEW,FOR_SALE,Rue Ferdinand Gossuin,4.202234,50.457594
370,https://www.immoweb.be/en/classified/house/for-sale/la-louviere/7100/20357655,20357655,La Louvière,7100,239000,HOUSE,HOUSE,4,140.0,0.0,0,25.0,120.0,3.0,1,209.0,INSTALLED,GOOD,FOR_SALE,Rue des Forgerons,4.1831603,50.4818115
371,https://www.immoweb.be/en/classified/apartment/for-sale/gozee/6534/20346737,20346737,GOZÉE,6534,199000,APARTMENT,APARTMENT,2,83.0,0.0,0,8.0,0.0,0.0,0,0.0,SEMI_EQUIPPED,GOOD,FOR_SALE,rue des renards,4.3601334,50.3571669
372,https://www.immoweb.be/en/classified/duplex/for-sale/gozee/6534/20052323,20052323,GOZEE,6534,139999,APARTMENT,DUPLEX,2,63.0,0.0,0,10.0,0.0,3.0,1,0.0,INSTALLED,GOOD,FOR_SALE,,,
373,https://www.immoweb.be/en/classified/town-house/for-sale/lessines/7860/20389102,20389102,Lessines,7860,274000,HOUSE,TOWN_HOUSE,3,225.0,0.0,0,27.0,0.0,0.0,0,650.0,UNKNOWN,GOOD,FOR_SALE,Rue de Grammont,3.8286374,50.7145117
374,https://www.immoweb.be/en/classified/villa/for-sale/thuin-gozee/6534/20162543,20162543,Thuin Gozée,6534,695000,HOUSE,VILLA,4,250.0,0.0,0,200.0,500.0,4.0,1,978.0,HYPER_EQUIPPED,AS_NEW,FOR_SALE,Rue Vandervelde,4.3332407,50.3651384
375,https://www.immoweb.be/en/classified/house/for-sale/thuin-gozee/6534/20348926,20348926,Thuin Gozée,6534,229000,HOUSE,HOUSE,5,280.0,0.0,0,30.0,0.0,3.0,0,0.0,UNKNOWN,TO_RENOVATE,FOR_SALE,Rue de la Couronne,4.3568105,50.3388338
376,https://www.immoweb.be/en/classified/house/for-sale/lessen/7860/20376903,20376903,LESSEN,7860,105000,HOUSE,HOUSE,2,165.0,0.0,0,22.0,0.0,2.0,0,190.0,SEMI_EQUIPPED,UNKNOWN,FOR_SALE,Porte d'Ogy,3.8254256,50.71254039999999
377,https://www.immoweb.be/en/classified/house/for-sale/thuin-gozee/6534/20229155,20229155,Thuin Gozée,6534,436107,HOUSE,HOUSE,3,184.0,0.0,0,24.0,0.0,4.0,0,1497.0,UNKNOWN,AS_NEW,FOR_SALE,,,
378,https://www.immoweb.be/en/classified/house/for-sale/maisieres/7020/20353916,20353916,MAISIÈRES,7020,245000,HOUSE,HOUSE,3,120.0,0.0,0,18.0,0.0,3.0,0,680.0,INSTALLED,GOOD,FOR_SALE,Cité des Espinois,3.9557691,50.4857848
379,https://www.immoweb.be/en/classified/house/for-sale/thuin/6534/20116906,20116906,Thuin,6534,260000,HOUSE,HOUSE,2,100.0,0.0,1,1.0,1.0,4.0,1,900.0,SEMI_EQUIPPED,UNKNOWN,FOR_SALE,,,
380,https://www.immoweb.be/en/classified/apartment/for-sale/zwevegem-zwevegem/8550/20384113,20384113,Zwevegem (Zwevegem),8550,299000,APARTMENT,APARTMENT,2,94.0,0.0,0,12.0,0.0,2.0,1,0.0,UNKNOWN,UNKNOWN,FOR_SALE,Leanderhof,3.3412093,50.8147814
381,https://www.immoweb.be/en/classified/villa/for-sale/thuin/6534/11454111,11454111,Thuin,6534,315000,HOUSE,VILLA,3,173.0,0.0,0,22.0,1.0,4.0,1,955.0,UNKNOWN,JUST_RENOVATED,FOR_SALE,Rue Des Églantines,4.3514715,50.3381237
382,https://www.immoweb.be/en/classified/villa/for-sale/gozee/6534/20391893,20391893,Gozée,6534,385000,HOUSE,VILLA,4,205.0,0.0,1,1.0,1.0,4.0,1,1380.0,HYPER_EQUIPPED,AS_NEW,FOR_SALE,,,
383,https://www.immoweb.be/en/classified/house/for-sale/nimy/7020/20298810,20298810,NIMY,7020,180000,HOUSE,HOUSE,3,219.0,0.0,0,27.0,0.0,4.0,0,721.0,UNKNOWN,TO_BE_DONE_UP,FOR_SALE,,,
384,https://www.immoweb.be/en/classified/apartment/for-sale/la-louviere/7100/20397467,20397467,La Louvière,7100,90000,APARTMENT,APARTMENT,2,79.0,0.0,0,10.0,0.0,2.0,0,0.0,INSTALLED,TO_BE_DONE_UP,FOR_SALE,Rue du Parc,4.1925954,50.476679
385,https://www.immoweb.be/en/classified/house/for-sale/nimy/7020/20382210,20382210,NIMY,7020,100000,HOUSE,HOUSE,1,165.0,0.0,0,25.0,250.0,2.0,0,338.0,INSTALLED,TO_RENOVATE,FOR_SALE,Rue des Viaducs,3.9489301,50.4793961
386,https://www.immoweb.be/en/classified/house/for-sale/lessen/7860/20391884,20391884,LESSEN,7860,279500,HOUSE,HOUSE,3,180.0,0.0,0,35.0,300.0,2.0,0,300.0,INSTALLED,TO_BE_DONE_UP,FOR_SALE,Chaussée de Renaix,3.822877,50.7126922
387,https://www.immoweb.be/en/classified/mixed-use-building/for-sale/bois-de-lessines/7860/20393123,20393123,BOIS-DE-LESSINES,7860,150000,HOUSE,MIXED_USE_BUILDING,3,158.0,0.0,0,21.0,0.0,0.0,0,70.0,UNKNOWN,TO_RENOVATE,FOR_SALE,Rue de Jeumont,3.8362889,50.7116349
388,https://www.immoweb.be/en/classified/house/for-sale/zwevegem/8550/20383766,20383766,ZWEVEGEM,8550,195000,HOUSE,HOUSE,2,146.0,0.0,0,20.0,0.0,2.0,0,101.0,INSTALLED,GOOD,FOR_SALE,Deerlijkstraat,3.3342101,50.8137379
389,https://www.immoweb.be/en/classified/apartment/for-sale/maisieres/7020/10990864,10990864,Maisières,7020,265000,APARTMENT,APARTMENT,2,90.0,0.0,0,28.0,0.0,2.0,0,0.0,UNKNOWN,GOOD,FOR_SALE,Grande,3.965319,50.4885712
390,https://www.immoweb.be/en/classified/apartment/for-sale/maisieres/7020/10785318,10785318,Maisières,7020,265000,APARTMENT,APARTMENT,1,67.0,0.0,0,1.0,0.0,2.0,0,0.0,UNKNOWN,AS_NEW,FOR_SALE,rue Grande,3.9966789,50.50422529999999
391,https://www.immoweb.be/en/classified/mixed-use-building/for-sale/twee-akren/7864/20326751,20326751,Twee-Akren,7864,395000,HOUSE,MIXED_USE_BUILDING,4,315.0,0.0,0,40.0,0.0,2.0,0,2010.0,UNKNOWN,UNKNOWN,FOR_SALE,Rue Saint-Géréon,3.8514562,50.730313
392,https://www.immoweb.be/en/classified/house/for-sale/kortessem/3722/20219358,20219358,Kortessem,3722,200000,HOUSE,HOUSE,2,153.0,0.0,0,10.0,164.0,2.0,0,256.0,INSTALLED,GOOD,FOR_SALE,Tongersesteenweg,5.3875341,50.85662689999999
393,https://www.immoweb.be/en/classified/house/for-sale/zwevegem/8550/20388580,20388580,Zwevegem,8550,388000,HOUSE,HOUSE,3,160.0,0.0,0,22.0,250.0,3.0,0,886.0,UNKNOWN,AS_NEW,FOR_SALE,,,
394,https://www.immoweb.be/en/classified/villa/for-sale/mons-casteaumaisieresmasnuy-saint-jean/7020/20318408,20318408,"Mons Casteau,Maisières,Masnuy-Saint-Jean",7020,879000,HOUSE,VILLA,4,620.0,0.0,0,100.0,0.0,4.0,1,5300.0,UNKNOWN,UNKNOWN,FOR_SALE,,,
395,https://www.immoweb.be/en/classified/house/for-sale/saint-ghislain/7330/20341258,20341258,Saint-Ghislain,7330,350000,HOUSE,HOUSE,3,208.0,0.0,0,10.0,0.0,3.0,1,400.0,HYPER_EQUIPPED,AS_NEW,FOR_SALE,Grand'Route de Mons,3.767389299999999,50.4791305
396,https://www.immoweb.be/en/classified/house/for-sale/zwevegem/8550/20391729,20391729,ZWEVEGEM,8550,210000,HOUSE,HOUSE,1,144.0,0.0,0,20.0,0.0,0.0,0,144.0,NOT_INSTALLED,UNKNOWN,FOR_SALE,Gauwelstraat,3.3966045,50.78030099999999
397,https://www.immoweb.be/en/classified/house/for-sale/gozee/6534/20398804,20398804,Gozée,6534,299000,HOUSE,HOUSE,4,375.0,0.0,0,24.0,700.0,4.0,1,1201.0,INSTALLED,GOOD,FOR_SALE,,,
398,https://www.immoweb.be/en/classified/house/for-sale/lessines/7860/20242424,20242424,Lessines,7860,240000,HOUSE,HOUSE,4,218.0,0.0,0,27.0,280.0,4.0,1,875.0,SEMI_EQUIPPED,TO_BE_DONE_UP,FOR_SALE,Chaussée De Renaix,3.8195943,50.71313259999999
399,https://www.immoweb.be/en/classified/house/for-sale/lessines/7864/11454371,11454371,Lessines,7864,649000,HOUSE,HOUSE,5,303.0,0.0,0,60.0,1900.0,4.0,0,3118.0,HYPER_EQUIPPED,UNKNOWN,FOR_SALE,Rue d'en Bas,3.869329,50.72745579999999
400,https://www.immoweb.be/en/classified/house/for-sale/saint-ghislain/7330/20341426,20341426,Saint-Ghislain,7330,350000,HOUSE,HOUSE,3,185.0,0.0,0,20.0,0.0,3.0,1,400.0,HYPER_EQUIPPED,AS_NEW,FOR_SALE,Grand'Route de Mons,3.767389299999999,50.4791305
401,https://www.immoweb.be/en/classified/house/for-sale/hoogstade/8691/20182939,20182939,Hoogstade,8691,239000,HOUSE,HOUSE,4,176.0,0.0,0,22.0,0.0,3.0,0,284.0,UNKNOWN,GOOD,FOR_SALE,Brouwerijstraat,2.6910206,50.97945989999999
402,https://www.immoweb.be/en/classified/ground-floor/for-sale/maisieres/7020/20209586,20209586,Maisières,7020,240000,APARTMENT,GROUND_FLOOR,2,87.0,0.0,0,13.0,0.0,2.0,0,0.0,HYPER_EQUIPPED,GOOD,FOR_SALE,Rue des Viaducs,3.9512774,50.4785536
403,https://www.immoweb.be/en/classified/house/for-sale/twee-akren/7864/20125002,20125002,Twee-Akren,7864,375000,HOUSE,HOUSE,5,279.0,0.0,0,30.0,0.0,4.0,0,3490.0,UNKNOWN,UNKNOWN,FOR_SALE,Rue de l'Ordre,3.8508546,50.7297459
404,https://www.immoweb.be/en/classified/house/for-sale/lessines-deux-acren/7864/11387928,11387928,Lessines Deux-Acren,7864,353129,HOUSE,HOUSE,3,189.0,0.0,0,24.0,0.0,4.0,0,920.0,UNKNOWN,AS_NEW,FOR_SALE,,,
405,https://www.immoweb.be/en/classified/house/for-sale/thuin/6534/10415638,10415638,Thuin,6534,499000,HOUSE,HOUSE,3,260.0,0.0,0,80.0,942.0,2.0,1,1250.0,HYPER_EQUIPPED,AS_NEW,FOR_SALE,,,
406,https://www.immoweb.be/en/classified/house/for-sale/la-louviere-saint-vaast/7100/20396140,20396140,La Louvière Saint-Vaast,7100,135000,HOUSE,HOUSE,5,245.0,0.0,0,30.0,0.0,2.0,0,424.0,SEMI_EQUIPPED,GOOD,FOR_SALE,Rue des Braconniers,4.168715199999999,50.45321
407,https://www.immoweb.be/en/classified/house/for-sale/lessen/7860/20394755,20394755,LESSEN,7860,165000,HOUSE,HOUSE,2,100.0,0.0,0,13.0,0.0,2.0,0,50.0,INSTALLED,GOOD,FOR_SALE,rue de l'industrie,3.8397423,50.7051409
408,https://www.immoweb.be/en/classified/apartment/for-sale/lessen/7860/20331955,20331955,LESSEN,7860,235000,APARTMENT,APARTMENT,2,111.0,0.0,0,15.0,0.0,2.0,0,0.0,INSTALLED,GOOD,FOR_SALE,CHAUSSEE DE RENAIX,3.8223785,50.7127832
409,https://www.immoweb.be/en/classified/villa/for-sale/deux-acren/7864/11448861,11448861,Deux-Acren,7864,575000,HOUSE,VILLA,5,750.0,0.0,0,60.0,0.0,4.0,0,3110.0,HYPER_EQUIPPED,AS_NEW,FOR_SALE,Chevauchoire de Viane,3.8465519,50.7206902
410,https://www.immoweb.be/en/classified/apartment-block/for-sale/lessines/7860/10978691,10978691,Lessines,7860,210000,HOUSE,APARTMENT_BLOCK,4,320.0,0.0,0,40.0,0.0,2.0,0,180.0,UNKNOWN,UNKNOWN,FOR_SALE,Grand Rue,3.8303545,50.7118929
411,https://www.immoweb.be/en/classified/apartment/for-sale/zwevegem/8550/20207248,20207248,Zwevegem,8550,425997,APARTMENT,APARTMENT,3,123.0,0.0,0,15.0,1.0,3.0,1,0.0,UNKNOWN,AS_NEW,FOR_SALE,Kortrijkstraat,3.3327261,50.8128351
412,https://www.immoweb.be/en/classified/house/for-sale/beveren/8691/20321780,20321780,Beveren,8691,179000,HOUSE,HOUSE,3,158.0,0.0,0,21.0,0.0,2.0,0,228.0,UNKNOWN,GOOD,FOR_SALE,Bergenstraat,2.6200259,50.9221836
413,https://www.immoweb.be/en/classified/house/for-sale/saint-ghislain/7330/20341254,20341254,Saint-Ghislain,7330,350000,HOUSE,HOUSE,3,208.0,0.0,0,10.0,0.0,3.0,1,400.0,HYPER_EQUIPPED,AS_NEW,FOR_SALE,Grand'Route de Mons,3.767389299999999,50.4791305
414,https://www.immoweb.be/en/classified/house/for-sale/lessen/7860/20365694,20365694,LESSEN,7860,165000,HOUSE,HOUSE,3,150.0,0.0,0,20.0,0.0,2.0,0,400.0,SEMI_EQUIPPED,TO_RENOVATE,FOR_SALE,Rue des Patriotes,3.840092799999999,50.7087687
415,https://www.immoweb.be/en/classified/house/for-sale/zwevegem/8550/10724934,10724934,ZWEVEGEM,8550,344000,HOUSE,HOUSE,3,214.0,0.0,0,26.0,0.0,2.0,0,165.0,USA_INSTALLED,UNKNOWN,FOR_SALE,Hinnestraat,3.3215935,50.8149056
416,https://www.immoweb.be/en/classified/house/for-sale/theux-la-reid/4910/11419334,11419334,Theux La Reid,4910,349000,HOUSE,HOUSE,4,216.0,0.0,0,27.0,0.0,3.0,1,580.0,INSTALLED,GOOD,FOR_SALE,Winamplanche,5.82013,50.47752
417,https://www.immoweb.be/en/classified/house/for-sale/saint-ghislain/7330/20341427,20341427,Saint-Ghislain,7330,350000,HOUSE,HOUSE,3,208.0,0.0,0,10.0,0.0,3.0,1,400.0,HYPER_EQUIPPED,AS_NEW,FOR_SALE,Grand'Route de Mons,3.767389299999999,50.4791305
418,https://www.immoweb.be/en/classified/house/for-sale/zwevegem/8550/20362347,20362347,Zwevegem,8550,344000,HOUSE,HOUSE,3,214.0,0.0,0,26.0,0.0,2.0,0,165.0,UNKNOWN,AS_NEW,FOR_SALE,Hinnestraat,3.3215935,50.8149056
419,https://www.immoweb.be/en/classified/house/for-sale/kortessem/3722/20396824,20396824,KORTESSEM,3722,311000,HOUSE,HOUSE,3,153.0,0.0,0,20.75,639.0,3.0,0,0.0,UNKNOWN,TO_BE_DONE_UP,FOR_SALE,Bronstraat,5.4240046,50.8538244
420,https://www.immoweb.be/en/classified/apartment/for-sale/lessines/7860/11156514,11156514,Lessines,7860,169000,APARTMENT,APARTMENT,1,74.0,0.0,0,10.0,0.0,2.0,1,0.0,INSTALLED,JUST_RENOVATED,FOR_SALE,Rue Tramasure,3.8296008,50.7090684
421,https://www.immoweb.be/en/classified/house/for-sale/saint-ghislain/7330/20310515,20310515,Saint-Ghislain,7330,325000,HOUSE,HOUSE,3,178.0,0.0,0,10.0,0.0,2.0,1,400.0,HYPER_EQUIPPED,AS_NEW,FOR_SALE,Grand'Route de Mons,3.767757399999999,50.4790393
422,https://www.immoweb.be/en/classified/house/for-sale/alveringem/8691/20322321,20322321,Alveringem,8691,386000,HOUSE,HOUSE,5,782.0,0.0,0,80.0,0.0,0.0,0,1112.0,UNKNOWN,TO_RESTORE,FOR_SALE,Groenestraat,2.6563065,50.9925327
423,https://www.immoweb.be/en/classified/house/for-sale/zwevegem/8550/20387115,20387115,Zwevegem,8550,175000,HOUSE,HOUSE,3,107.0,0.0,0,14.0,0.0,3.0,1,352.0,UNKNOWN,UNKNOWN,FOR_SALE,Ellestraat,3.3611602,50.8035167
424,https://www.immoweb.be/en/classified/house/for-sale/lessen/7860/20391883,20391883,LESSEN,7860,139500,HOUSE,HOUSE,2,120.0,0.0,0,9.0,0.0,2.0,0,70.0,INSTALLED,GOOD,FOR_SALE,Rue des Fosses,3.8279031,50.7111066
425,https://www.immoweb.be/en/classified/house/for-sale/deux-acren/7864/20334974,20334974,Deux-acren,7864,326000,HOUSE,HOUSE,4,200.0,0.0,0,25.0,0.0,4.0,0,603.0,UNKNOWN,GOOD,FOR_SALE,Rue de la Station d'Acren,3.8467727,50.7333931
426,https://www.immoweb.be/en/classified/bungalow/for-sale/deux-acren/7864/20297531,20297531,DEUX-ACREN,7864,315000,HOUSE,BUNGALOW,3,121.0,0.0,0,19.0,0.0,0.0,0,1109.0,SEMI_EQUIPPED,TO_BE_DONE_UP,FOR_SALE,chaussée,3.8405255,50.7445585
427,https://www.immoweb.be/en/classified/house/for-sale/deux-acren/7864/20376352,20376352,DEUX-ACREN,7864,325000,HOUSE,HOUSE,3,143.0,0.0,0,20.0,0.0,0.0,0,1628.0,INSTALLED,GOOD,FOR_SALE,Chaussée,3.8423595,50.7413721
428,https://www.immoweb.be/en/classified/house/for-sale/nimy/7020/20026575,20026575,Nimy,7020,199000,HOUSE,HOUSE,2,110.0,0.0,0,15.0,0.0,0.0,1,0.0,SEMI_EQUIPPED,GOOD,FOR_SALE,,,
429,https://www.immoweb.be/en/classified/house/for-sale/lessines/7864/20275965,20275965,Lessines,7864,332793,HOUSE,HOUSE,4,140.0,0.0,0,20.0,2200.0,4.0,0,2474.0,HYPER_EQUIPPED,AS_NEW,FOR_SALE,Remincourt,3.8727522,50.73122710000001
430,https://www.immoweb.be/en/classified/house/for-sale/lessen/7864/20395799,20395799,Lessen,7864,170000,HOUSE,HOUSE,3,140.0,0.0,0,45.0,150.0,2.0,1,346.0,INSTALLED,TO_RENOVATE,FOR_SALE,Rue De Lessines,3.8550142,50.7277204
431,https://www.immoweb.be/en/classified/apartment/for-sale/saint-ghislain/7330/11387350,11387350,SAINT-GHISLAIN,7330,199000,APARTMENT,APARTMENT,1,75.0,0.0,0,4.0,0.0,3.0,0,0.0,INSTALLED,GOOD,FOR_SALE,Rue de Saint-Lô,3.8218137,50.4445343
432,https://www.immoweb.be/en/classified/house/for-sale/izenberge/8691/20121124,20121124,Izenberge,8691,840000,HOUSE,HOUSE,6,443.0,0.0,0,40.0,0.0,3.0,1,500.0,INSTALLED,AS_NEW,FOR_SALE,Groenestraat,2.6545686,50.9940808
433,https://www.immoweb.be/en/classified/apartment/for-sale/deux-acren/7864/10506015,10506015,Deux-Acren,7864,220000,APARTMENT,APARTMENT,5,300.0,0.0,0,36.0,0.0,3.0,1,0.0,UNKNOWN,UNKNOWN,FOR_SALE,Rue Chapelle Saint-Pierre,3.8834882,50.7355318
434,https://www.immoweb.be/en/classified/apartment/for-sale/nimy/7020/20360932,20360932,Nimy,7020,240000,APARTMENT,APARTMENT,3,90.0,0.0,0,12.0,0.0,0.0,0,0.0,INSTALLED,GOOD,FOR_SALE,Route D'Ath,3.9440887,50.4878759
435,https://www.immoweb.be/en/classified/mixed-use-building/for-sale/deux-acren/7864/20376404,20376404,DEUX-ACREN,7864,325000,HOUSE,MIXED_USE_BUILDING,3,143.0,0.0,0,20.0,0.0,0.0,0,1628.0,INSTALLED,GOOD,FOR_SALE,Chaussée,3.8423595,50.7413721
436,https://www.immoweb.be/en/classified/house/for-sale/lessines/7860/20150450,20150450,Lessines,7860,175000,HOUSE,HOUSE,3,300.0,0.0,0,36.0,60.0,2.0,0,210.0,SEMI_EQUIPPED,TO_RENOVATE,FOR_SALE,Grand'Rue,3.832383,50.7118479
437,https://www.immoweb.be/en/classified/house/for-sale/zwevegem/8550/11489474,11489474,Zwevegem,8550,449500,HOUSE,HOUSE,3,177.0,0.0,0,22.0,898.0,0.0,0,993.0,INSTALLED,GOOD,FOR_SALE,Olieberg,3.3937108,50.7740095
438,https://www.immoweb.be/en/classified/apartment/for-sale/saint-ghislain/7330/11362609,11362609,SAINT-GHISLAIN,7330,249000,APARTMENT,APARTMENT,2,100.0,0.0,0,5.0,0.0,3.0,0,0.0,INSTALLED,GOOD,FOR_SALE,Rue de Saint-Lô,3.8218137,50.4445343
439,https://www.immoweb.be/en/classified/villa/for-sale/maisieres/7020/20217477,20217477,Maisières,7020,210000,HOUSE,VILLA,2,138.0,0.0,0,20.0,0.0,4.0,1,590.0,SEMI_EQUIPPED,TO_RENOVATE,FOR_SALE,Rue des Wartons,3.9589713,50.4845041
440,https://www.immoweb.be/en/classified/house/for-sale/lessines-deux-acren/7864/11387932,11387932,Lessines Deux-Acren,7864,380809,HOUSE,HOUSE,3,189.0,0.0,0,24.0,0.0,4.0,0,1696.0,UNKNOWN,AS_NEW,FOR_SALE,,,
441,https://www.immoweb.be/en/classified/country-cottage/for-sale/leisele/8691/20342501,20342501,Leisele,8691,399000,HOUSE,COUNTRY_COTTAGE,11,350.0,1.0,0,40.0,0.0,3.0,1,5000.0,UNKNOWN,UNKNOWN,FOR_SALE,Chemin du Clachoire,2.6149575,50.9579161
442,https://www.immoweb.be/en/classified/house/for-sale/theux/4910/20312988,20312988,Theux,4910,485000,HOUSE,HOUSE,5,329.0,0.0,1,40.0,0.0,3.0,1,0.0,INSTALLED,TO_BE_DONE_UP,FOR_SALE,Chemin Al Goffe,5.829683,50.546358
